{
"type": "FeatureCollection",
"crs": { "type": "name", "properties": { "name": "urn:ogc:def:crs:OGC:1.3:CRS84" } },
"features": [
{ "type": "Feature", "properties": { "Name": "ARBOL WYP", "description": "GPS 43.516945 70.854446", "timestamp": null, "begin": null, "end": null, "altitudeMode": null, "tessellate": -1, "extrude": 0, "visibility": -1, "drawOrder": null, "icon": null }, "geometry": { "type": "Point", "coordinates": [ 70.854446, 43.516945, 0.0 ] } },
{ "type": "Feature", "properties": { "Name": "ARDAG WYP", "description": "GPS 51.284443 20.69389", "timestamp": null, "begin": null, "end": null, "altitudeMode": null, "tessellate": -1, "extrude": 0, "visibility": -1, "drawOrder": null, "icon": null }, "geometry": { "type": "Point", "coordinates": [ 20.69389, 51.284443, 0.0 ] } },
{ "type": "Feature", "properties": { "Name": "ARDOK WYP", "description": "GPS 43.404999 34.105", "timestamp": null, "begin": null, "end": null, "altitudeMode": null, "tessellate": -1, "extrude": 0, "visibility": -1, "drawOrder": null, "icon": null }, "geometry": { "type": "Point", "coordinates": [ 34.105, 43.404999, 0.0 ] } },
{ "type": "Feature", "properties": { "Name": "ARGES WYP", "description": "GPS 44.082222 26.826666", "timestamp": null, "begin": null, "end": null, "altitudeMode": null, "tessellate": -1, "extrude": 0, "visibility": -1, "drawOrder": null, "icon": null }, "geometry": { "type": "Point", "coordinates": [ 26.826666, 44.082222, 0.0 ] } },
{ "type": "Feature", "properties": { "Name": "ARGUT WYP", "description": "GPS 43.433334 43.933334", "timestamp": null, "begin": null, "end": null, "altitudeMode": null, "tessellate": -1, "extrude": 0, "visibility": -1, "drawOrder": null, "icon": null }, "geometry": { "type": "Point", "coordinates": [ 43.933334, 43.433334, 0.0 ] } },
{ "type": "Feature", "properties": { "Name": "ARIES WYP", "description": "GPS 46.384548 23.449244", "timestamp": null, "begin": null, "end": null, "altitudeMode": null, "tessellate": -1, "extrude": 0, "visibility": -1, "drawOrder": null, "icon": null }, "geometry": { "type": "Point", "coordinates": [ 23.449244, 46.384548, 0.0 ] } },
{ "type": "Feature", "properties": { "Name": "ARISA WYP", "description": "GPS 51.490002 50.548332", "timestamp": null, "begin": null, "end": null, "altitudeMode": null, "tessellate": -1, "extrude": 0, "visibility": -1, "drawOrder": null, "icon": null }, "geometry": { "type": "Point", "coordinates": [ 50.548332, 51.490002, 0.0 ] } },
{ "type": "Feature", "properties": { "Name": "ARKAD WYP", "description": "GPS 52.866665 44.099998", "timestamp": null, "begin": null, "end": null, "altitudeMode": null, "tessellate": -1, "extrude": 0, "visibility": -1, "drawOrder": null, "icon": null }, "geometry": { "type": "Point", "coordinates": [ 44.099998, 52.866665, 0.0 ] } },
{ "type": "Feature", "properties": { "Name": "ARKAM WYP", "description": "GPS 47.193054 64.539169", "timestamp": null, "begin": null, "end": null, "altitudeMode": null, "tessellate": -1, "extrude": 0, "visibility": -1, "drawOrder": null, "icon": null }, "geometry": { "type": "Point", "coordinates": [ 64.539169, 47.193054, 0.0 ] } },
{ "type": "Feature", "properties": { "Name": "ARKAN WYP", "description": "GPS 54.666668 94.98333", "timestamp": null, "begin": null, "end": null, "altitudeMode": null, "tessellate": -1, "extrude": 0, "visibility": -1, "drawOrder": null, "icon": null }, "geometry": { "type": "Point", "coordinates": [ 94.98333, 54.666668, 0.0 ] } },
{ "type": "Feature", "properties": { "Name": "ARLAN WYP", "description": "GPS 41.266666 73.066666", "timestamp": null, "begin": null, "end": null, "altitudeMode": null, "tessellate": -1, "extrude": 0, "visibility": -1, "drawOrder": null, "icon": null }, "geometry": { "type": "Point", "coordinates": [ 73.066666, 41.266666, 0.0 ] } },
{ "type": "Feature", "properties": { "Name": "ARMUD WYP", "description": "GPS 39.686668 50.358334", "timestamp": null, "begin": null, "end": null, "altitudeMode": null, "tessellate": -1, "extrude": 0, "visibility": -1, "drawOrder": null, "icon": null }, "geometry": { "type": "Point", "coordinates": [ 50.358334, 39.686668, 0.0 ] } },
{ "type": "Feature", "properties": { "Name": "ARPAL WYP", "description": "GPS 50.802223 67.354721", "timestamp": null, "begin": null, "end": null, "altitudeMode": null, "tessellate": -1, "extrude": 0, "visibility": -1, "drawOrder": null, "icon": null }, "geometry": { "type": "Point", "coordinates": [ 67.354721, 50.802223, 0.0 ] } },
{ "type": "Feature", "properties": { "Name": "ARSAR WYP", "description": "GPS 40.561668 43.869999", "timestamp": null, "begin": null, "end": null, "altitudeMode": null, "tessellate": -1, "extrude": 0, "visibility": -1, "drawOrder": null, "icon": null }, "geometry": { "type": "Point", "coordinates": [ 43.869999, 40.561668, 0.0 ] } },
{ "type": "Feature", "properties": { "Name": "ARSUV WYP", "description": "GPS 38.880001 60.505001", "timestamp": null, "begin": null, "end": null, "altitudeMode": null, "tessellate": -1, "extrude": 0, "visibility": -1, "drawOrder": null, "icon": null }, "geometry": { "type": "Point", "coordinates": [ 60.505001, 38.880001, 0.0 ] } },
{ "type": "Feature", "properties": { "Name": "ARTUS WYP", "description": "GPS 42.837223 76.214447", "timestamp": null, "begin": null, "end": null, "altitudeMode": null, "tessellate": -1, "extrude": 0, "visibility": -1, "drawOrder": null, "icon": null }, "geometry": { "type": "Point", "coordinates": [ 76.214447, 42.837223, 0.0 ] } },
{ "type": "Feature", "properties": { "Name": "ARUTA WYP", "description": "GPS 66.769997 59.106667", "timestamp": null, "begin": null, "end": null, "altitudeMode": null, "tessellate": -1, "extrude": 0, "visibility": -1, "drawOrder": null, "icon": null }, "geometry": { "type": "Point", "coordinates": [ 59.106667, 66.769997, 0.0 ] } },
{ "type": "Feature", "properties": { "Name": "ARVAR WYP", "description": "GPS 43.376389 69.173058", "timestamp": null, "begin": null, "end": null, "altitudeMode": null, "tessellate": -1, "extrude": 0, "visibility": -1, "drawOrder": null, "icon": null }, "geometry": { "type": "Point", "coordinates": [ 69.173058, 43.376389, 0.0 ] } },
{ "type": "Feature", "properties": { "Name": "ARVAT WYP", "description": "GPS 39.0 56.299999", "timestamp": null, "begin": null, "end": null, "altitudeMode": null, "tessellate": -1, "extrude": 0, "visibility": -1, "drawOrder": null, "icon": null }, "geometry": { "type": "Point", "coordinates": [ 56.299999, 39.0, 0.0 ] } },
{ "type": "Feature", "properties": { "Name": "ARYS WYP", "description": "GPS 42.433334 68.833336", "timestamp": null, "begin": null, "end": null, "altitudeMode": null, "tessellate": -1, "extrude": 0, "visibility": -1, "drawOrder": null, "icon": null }, "geometry": { "type": "Point", "coordinates": [ 68.833336, 42.433334, 0.0 ] } },
{ "type": "Feature", "properties": { "Name": "ASHGA WYP", "description": "GPS 39.531666 63.326668", "timestamp": null, "begin": null, "end": null, "altitudeMode": null, "tessellate": -1, "extrude": 0, "visibility": -1, "drawOrder": null, "icon": null }, "geometry": { "type": "Point", "coordinates": [ 63.326668, 39.531666, 0.0 ] } },
{ "type": "Feature", "properties": { "Name": "ASKIN WYP", "description": "GPS 56.285 56.546665", "timestamp": null, "begin": null, "end": null, "altitudeMode": null, "tessellate": -1, "extrude": 0, "visibility": -1, "drawOrder": null, "icon": null }, "geometry": { "type": "Point", "coordinates": [ 56.546665, 56.285, 0.0 ] } },
{ "type": "Feature", "properties": { "Name": "ASLAN WYP", "description": "GPS 41.084999 50.608334", "timestamp": null, "begin": null, "end": null, "altitudeMode": null, "tessellate": -1, "extrude": 0, "visibility": -1, "drawOrder": null, "icon": null }, "geometry": { "type": "Point", "coordinates": [ 50.608334, 41.084999, 0.0 ] } },
{ "type": "Feature", "properties": { "Name": "ASRUN WYP", "description": "GPS 57.793335 21.866112", "timestamp": null, "begin": null, "end": null, "altitudeMode": null, "tessellate": -1, "extrude": 0, "visibility": -1, "drawOrder": null, "icon": null }, "geometry": { "type": "Point", "coordinates": [ 21.866112, 57.793335, 0.0 ] } },
{ "type": "Feature", "properties": { "Name": "ASTRA WYP", "description": "GPS 56.368889 24.630278", "timestamp": null, "begin": null, "end": null, "altitudeMode": null, "tessellate": -1, "extrude": 0, "visibility": -1, "drawOrder": null, "icon": null }, "geometry": { "type": "Point", "coordinates": [ 24.630278, 56.368889, 0.0 ] } },
{ "type": "Feature", "properties": { "Name": "ATBAN WYP", "description": "GPS 51.973331 68.364441", "timestamp": null, "begin": null, "end": null, "altitudeMode": null, "tessellate": -1, "extrude": 0, "visibility": -1, "drawOrder": null, "icon": null }, "geometry": { "type": "Point", "coordinates": [ 68.364441, 51.973331, 0.0 ] } },
{ "type": "Feature", "properties": { "Name": "ATNON WYP", "description": "GPS 52.196945 67.563889", "timestamp": null, "begin": null, "end": null, "altitudeMode": null, "tessellate": -1, "extrude": 0, "visibility": -1, "drawOrder": null, "icon": null }, "geometry": { "type": "Point", "coordinates": [ 67.563889, 52.196945, 0.0 ] } },
{ "type": "Feature", "properties": { "Name": "ATNOS WYP", "description": "GPS 46.101665 30.111666", "timestamp": null, "begin": null, "end": null, "altitudeMode": null, "tessellate": -1, "extrude": 0, "visibility": -1, "drawOrder": null, "icon": null }, "geometry": { "type": "Point", "coordinates": [ 30.111666, 46.101665, 0.0 ] } },
{ "type": "Feature", "properties": { "Name": "ATRAK WYP", "description": "GPS 56.681946 23.879444", "timestamp": null, "begin": null, "end": null, "altitudeMode": null, "tessellate": -1, "extrude": 0, "visibility": -1, "drawOrder": null, "icon": null }, "geometry": { "type": "Point", "coordinates": [ 23.879444, 56.681946, 0.0 ] } },
{ "type": "Feature", "properties": { "Name": "ATRUS WYP", "description": "GPS 46.883888 67.120834", "timestamp": null, "begin": null, "end": null, "altitudeMode": null, "tessellate": -1, "extrude": 0, "visibility": -1, "drawOrder": null, "icon": null }, "geometry": { "type": "Point", "coordinates": [ 67.120834, 46.883888, 0.0 ] } },
{ "type": "Feature", "properties": { "Name": "AVADI WYP", "description": "GPS 56.233334 37.433334", "timestamp": null, "begin": null, "end": null, "altitudeMode": null, "tessellate": -1, "extrude": 0, "visibility": -1, "drawOrder": null, "icon": null }, "geometry": { "type": "Point", "coordinates": [ 37.433334, 56.233334, 0.0 ] } },
{ "type": "Feature", "properties": { "Name": "AVIBI WYP", "description": "GPS 55.108334 104.491669", "timestamp": null, "begin": null, "end": null, "altitudeMode": null, "tessellate": -1, "extrude": 0, "visibility": -1, "drawOrder": null, "icon": null }, "geometry": { "type": "Point", "coordinates": [ 104.491669, 55.108334, 0.0 ] } },
{ "type": "Feature", "properties": { "Name": "AVILI WYP", "description": "GPS 43.205002 48.866665", "timestamp": null, "begin": null, "end": null, "altitudeMode": null, "tessellate": -1, "extrude": 0, "visibility": -1, "drawOrder": null, "icon": null }, "geometry": { "type": "Point", "coordinates": [ 48.866665, 43.205002, 0.0 ] } },
{ "type": "Feature", "properties": { "Name": "AVIRA WYP", "description": "GPS 47.186668 46.173332", "timestamp": null, "begin": null, "end": null, "altitudeMode": null, "tessellate": -1, "extrude": 0, "visibility": -1, "drawOrder": null, "icon": null }, "geometry": { "type": "Point", "coordinates": [ 46.173332, 47.186668, 0.0 ] } },
{ "type": "Feature", "properties": { "Name": "AVLAK WYP", "description": "GPS 46.198891 61.713612", "timestamp": null, "begin": null, "end": null, "altitudeMode": null, "tessellate": -1, "extrude": 0, "visibility": -1, "drawOrder": null, "icon": null }, "geometry": { "type": "Point", "coordinates": [ 61.713612, 46.198891, 0.0 ] } },
{ "type": "Feature", "properties": { "Name": "AVLOK WYP", "description": "GPS 50.963333 58.598331", "timestamp": null, "begin": null, "end": null, "altitudeMode": null, "tessellate": -1, "extrude": 0, "visibility": -1, "drawOrder": null, "icon": null }, "geometry": { "type": "Point", "coordinates": [ 58.598331, 50.963333, 0.0 ] } },
{ "type": "Feature", "properties": { "Name": "AWRAL WYP", "description": "GPS 64.616669 60.299999", "timestamp": null, "begin": null, "end": null, "altitudeMode": null, "tessellate": -1, "extrude": 0, "visibility": -1, "drawOrder": null, "icon": null }, "geometry": { "type": "Point", "coordinates": [ 60.299999, 64.616669, 0.0 ] } },
{ "type": "Feature", "properties": { "Name": "AZABI WYP", "description": "GPS 44.740002 49.5", "timestamp": null, "begin": null, "end": null, "altitudeMode": null, "tessellate": -1, "extrude": 0, "visibility": -1, "drawOrder": null, "icon": null }, "geometry": { "type": "Point", "coordinates": [ 49.5, 44.740002, 0.0 ] } },
{ "type": "Feature", "properties": { "Name": "AZELI WYP", "description": "GPS 42.5 44.25", "timestamp": null, "begin": null, "end": null, "altitudeMode": null, "tessellate": -1, "extrude": 0, "visibility": -1, "drawOrder": null, "icon": null }, "geometry": { "type": "Point", "coordinates": [ 44.25, 42.5, 0.0 ] } },
{ "type": "Feature", "properties": { "Name": "AZOVO WYP", "description": "GPS 53.583332 83.166664", "timestamp": null, "begin": null, "end": null, "altitudeMode": null, "tessellate": -1, "extrude": 0, "visibility": -1, "drawOrder": null, "icon": null }, "geometry": { "type": "Point", "coordinates": [ 83.166664, 53.583332, 0.0 ] } },
{ "type": "Feature", "properties": { "Name": "BABAT WYP", "description": "GPS 53.599998 48.633335", "timestamp": null, "begin": null, "end": null, "altitudeMode": null, "tessellate": -1, "extrude": 0, "visibility": -1, "drawOrder": null, "icon": null }, "geometry": { "type": "Point", "coordinates": [ 48.633335, 53.599998, 0.0 ] } },
{ "type": "Feature", "properties": { "Name": "BABEK WYP", "description": "GPS 40.724998 49.788334", "timestamp": null, "begin": null, "end": null, "altitudeMode": null, "tessellate": -1, "extrude": 0, "visibility": -1, "drawOrder": null, "icon": null }, "geometry": { "type": "Point", "coordinates": [ 49.788334, 40.724998, 0.0 ] } },
{ "type": "Feature", "properties": { "Name": "BABIK WYP", "description": "GPS 54.685001 15.719167", "timestamp": null, "begin": null, "end": null, "altitudeMode": null, "tessellate": -1, "extrude": 0, "visibility": -1, "drawOrder": null, "icon": null }, "geometry": { "type": "Point", "coordinates": [ 15.719167, 54.685001, 0.0 ] } },
{ "type": "Feature", "properties": { "Name": "BABIT WYP", "description": "GPS 45.930862 18.933722", "timestamp": null, "begin": null, "end": null, "altitudeMode": null, "tessellate": -1, "extrude": 0, "visibility": -1, "drawOrder": null, "icon": null }, "geometry": { "type": "Point", "coordinates": [ 18.933722, 45.930862, 0.0 ] } },
{ "type": "Feature", "properties": { "Name": "BABOK WYP", "description": "GPS 54.455002 30.268333", "timestamp": null, "begin": null, "end": null, "altitudeMode": null, "tessellate": -1, "extrude": 0, "visibility": -1, "drawOrder": null, "icon": null }, "geometry": { "type": "Point", "coordinates": [ 30.268333, 54.455002, 0.0 ] } },
{ "type": "Feature", "properties": { "Name": "BABUN WYP", "description": "GPS 52.181667 28.783333", "timestamp": null, "begin": null, "end": null, "altitudeMode": null, "tessellate": -1, "extrude": 0, "visibility": -1, "drawOrder": null, "icon": null }, "geometry": { "type": "Point", "coordinates": [ 28.783333, 52.181667, 0.0 ] } },
{ "type": "Feature", "properties": { "Name": "BABUR WYP", "description": "GPS 45.386665 49.5", "timestamp": null, "begin": null, "end": null, "altitudeMode": null, "tessellate": -1, "extrude": 0, "visibility": -1, "drawOrder": null, "icon": null }, "geometry": { "type": "Point", "coordinates": [ 49.5, 45.386665, 0.0 ] } },
{ "type": "Feature", "properties": { "Name": "BADAS WYP", "description": "GPS 44.373333 64.614998", "timestamp": null, "begin": null, "end": null, "altitudeMode": null, "tessellate": -1, "extrude": 0, "visibility": -1, "drawOrder": null, "icon": null }, "geometry": { "type": "Point", "coordinates": [ 64.614998, 44.373333, 0.0 ] } },
{ "type": "Feature", "properties": { "Name": "BADIR WYP", "description": "GPS 41.650002 45.549999", "timestamp": null, "begin": null, "end": null, "altitudeMode": null, "tessellate": -1, "extrude": 0, "visibility": -1, "drawOrder": null, "icon": null }, "geometry": { "type": "Point", "coordinates": [ 45.549999, 41.650002, 0.0 ] } },
{ "type": "Feature", "properties": { "Name": "BADKI WYP", "description": "GPS 42.996944 29.143333", "timestamp": null, "begin": null, "end": null, "altitudeMode": null, "tessellate": -1, "extrude": 0, "visibility": -1, "drawOrder": null, "icon": null }, "geometry": { "type": "Point", "coordinates": [ 29.143333, 42.996944, 0.0 ] } },
{ "type": "Feature", "properties": { "Name": "BADNO WYP", "description": "GPS 51.75 17.678333", "timestamp": null, "begin": null, "end": null, "altitudeMode": null, "tessellate": -1, "extrude": 0, "visibility": -1, "drawOrder": null, "icon": null }, "geometry": { "type": "Point", "coordinates": [ 17.678333, 51.75, 0.0 ] } },
{ "type": "Feature", "properties": { "Name": "BADON WYP", "description": "GPS 48.736668 27.035", "timestamp": null, "begin": null, "end": null, "altitudeMode": null, "tessellate": -1, "extrude": 0, "visibility": -1, "drawOrder": null, "icon": null }, "geometry": { "type": "Point", "coordinates": [ 27.035, 48.736668, 0.0 ] } },
{ "type": "Feature", "properties": { "Name": "BADOR WYP", "description": "GPS 47.573544 22.107922", "timestamp": null, "begin": null, "end": null, "altitudeMode": null, "tessellate": -1, "extrude": 0, "visibility": -1, "drawOrder": null, "icon": null }, "geometry": { "type": "Point", "coordinates": [ 22.107922, 47.573544, 0.0 ] } },
{ "type": "Feature", "properties": { "Name": "BADUN WYP", "description": "GPS 60.049999 30.450001", "timestamp": null, "begin": null, "end": null, "altitudeMode": null, "tessellate": -1, "extrude": 0, "visibility": -1, "drawOrder": null, "icon": null }, "geometry": { "type": "Point", "coordinates": [ 30.450001, 60.049999, 0.0 ] } },
{ "type": "Feature", "properties": { "Name": "BAEVO WYP", "description": "GPS 54.503334 31.086666", "timestamp": null, "begin": null, "end": null, "altitudeMode": null, "tessellate": -1, "extrude": 0, "visibility": -1, "drawOrder": null, "icon": null }, "geometry": { "type": "Point", "coordinates": [ 31.086666, 54.503334, 0.0 ] } },
{ "type": "Feature", "properties": { "Name": "BAGIL WYP", "description": "GPS 47.573055 74.185555", "timestamp": null, "begin": null, "end": null, "altitudeMode": null, "tessellate": -1, "extrude": 0, "visibility": -1, "drawOrder": null, "icon": null }, "geometry": { "type": "Point", "coordinates": [ 74.185555, 47.573055, 0.0 ] } },
{ "type": "Feature", "properties": { "Name": "BAGIR WYP", "description": "GPS 49.024445 51.705276", "timestamp": null, "begin": null, "end": null, "altitudeMode": null, "tessellate": -1, "extrude": 0, "visibility": -1, "drawOrder": null, "icon": null }, "geometry": { "type": "Point", "coordinates": [ 51.705276, 49.024445, 0.0 ] } },
{ "type": "Feature", "properties": { "Name": "BAGRI WYP", "description": "GPS 45.186668 29.803333", "timestamp": null, "begin": null, "end": null, "altitudeMode": null, "tessellate": -1, "extrude": 0, "visibility": -1, "drawOrder": null, "icon": null }, "geometry": { "type": "Point", "coordinates": [ 29.803333, 45.186668, 0.0 ] } },
{ "type": "Feature", "properties": { "Name": "BAHAR WYP", "description": "GPS 38.785 58.556667", "timestamp": null, "begin": null, "end": null, "altitudeMode": null, "tessellate": -1, "extrude": 0, "visibility": -1, "drawOrder": null, "icon": null }, "geometry": { "type": "Point", "coordinates": [ 58.556667, 38.785, 0.0 ] } },
{ "type": "Feature", "properties": { "Name": "BAISA WYP", "description": "GPS 46.595146 23.503191", "timestamp": null, "begin": null, "end": null, "altitudeMode": null, "tessellate": -1, "extrude": 0, "visibility": -1, "drawOrder": null, "icon": null }, "geometry": { "type": "Point", "coordinates": [ 23.503191, 46.595146, 0.0 ] } },
{ "type": "Feature", "properties": { "Name": "BAKET WYP", "description": "GPS 60.226665 40.865002", "timestamp": null, "begin": null, "end": null, "altitudeMode": null, "tessellate": -1, "extrude": 0, "visibility": -1, "drawOrder": null, "icon": null }, "geometry": { "type": "Point", "coordinates": [ 40.865002, 60.226665, 0.0 ] } },
{ "type": "Feature", "properties": { "Name": "BAKNA WYP", "description": "GPS 46.483334 31.549999", "timestamp": null, "begin": null, "end": null, "altitudeMode": null, "tessellate": -1, "extrude": 0, "visibility": -1, "drawOrder": null, "icon": null }, "geometry": { "type": "Point", "coordinates": [ 31.549999, 46.483334, 0.0 ] } },
{ "type": "Feature", "properties": { "Name": "BAKOL WYP", "description": "GPS 47.654057 18.466667", "timestamp": null, "begin": null, "end": null, "altitudeMode": null, "tessellate": -1, "extrude": 0, "visibility": -1, "drawOrder": null, "icon": null }, "geometry": { "type": "Point", "coordinates": [ 18.466667, 47.654057, 0.0 ] } },
{ "type": "Feature", "properties": { "Name": "BALAP WYP", "description": "GPS 48.067997 19.249952", "timestamp": null, "begin": null, "end": null, "altitudeMode": null, "tessellate": -1, "extrude": 0, "visibility": -1, "drawOrder": null, "icon": null }, "geometry": { "type": "Point", "coordinates": [ 19.249952, 48.067997, 0.0 ] } },
{ "type": "Feature", "properties": { "Name": "BALAT WYP", "description": "GPS 40.641666 57.099998", "timestamp": null, "begin": null, "end": null, "altitudeMode": null, "tessellate": -1, "extrude": 0, "visibility": -1, "drawOrder": null, "icon": null }, "geometry": { "type": "Point", "coordinates": [ 57.099998, 40.641666, 0.0 ] } },
{ "type": "Feature", "properties": { "Name": "BALBA WYP", "description": "GPS 50.861668 23.023333", "timestamp": null, "begin": null, "end": null, "altitudeMode": null, "tessellate": -1, "extrude": 0, "visibility": -1, "drawOrder": null, "icon": null }, "geometry": { "type": "Point", "coordinates": [ 23.023333, 50.861668, 0.0 ] } },
{ "type": "Feature", "properties": { "Name": "BALGO WYP", "description": "GPS 43.220276 73.640556", "timestamp": null, "begin": null, "end": null, "altitudeMode": null, "tessellate": -1, "extrude": 0, "visibility": -1, "drawOrder": null, "icon": null }, "geometry": { "type": "Point", "coordinates": [ 73.640556, 43.220276, 0.0 ] } },
{ "type": "Feature", "properties": { "Name": "BALIG WYP", "description": "GPS 43.328609 51.838055", "timestamp": null, "begin": null, "end": null, "altitudeMode": null, "tessellate": -1, "extrude": 0, "visibility": -1, "drawOrder": null, "icon": null }, "geometry": { "type": "Point", "coordinates": [ 51.838055, 43.328609, 0.0 ] } },
{ "type": "Feature", "properties": { "Name": "BALIN WYP", "description": "GPS 48.866665 26.666666", "timestamp": null, "begin": null, "end": null, "altitudeMode": null, "tessellate": -1, "extrude": 0, "visibility": -1, "drawOrder": null, "icon": null }, "geometry": { "type": "Point", "coordinates": [ 26.666666, 48.866665, 0.0 ] } },
{ "type": "Feature", "properties": { "Name": "BALOG WYP", "description": "GPS 44.751621 26.069639", "timestamp": null, "begin": null, "end": null, "altitudeMode": null, "tessellate": -1, "extrude": 0, "visibility": -1, "drawOrder": null, "icon": null }, "geometry": { "type": "Point", "coordinates": [ 26.069639, 44.751621, 0.0 ] } },
{ "type": "Feature", "properties": { "Name": "BALOS WYP", "description": "GPS 50.323612 19.581388", "timestamp": null, "begin": null, "end": null, "altitudeMode": null, "tessellate": -1, "extrude": 0, "visibility": -1, "drawOrder": null, "icon": null }, "geometry": { "type": "Point", "coordinates": [ 19.581388, 50.323612, 0.0 ] } },
{ "type": "Feature", "properties": { "Name": "BALTU WYP", "description": "GPS 50.089462 13.326522", "timestamp": null, "begin": null, "end": null, "altitudeMode": null, "tessellate": -1, "extrude": 0, "visibility": -1, "drawOrder": null, "icon": null }, "geometry": { "type": "Point", "coordinates": [ 13.326522, 50.089462, 0.0 ] } },
{ "type": "Feature", "properties": { "Name": "BALUN WYP", "description": "GPS 42.016666 51.461666", "timestamp": null, "begin": null, "end": null, "altitudeMode": null, "tessellate": -1, "extrude": 0, "visibility": -1, "drawOrder": null, "icon": null }, "geometry": { "type": "Point", "coordinates": [ 51.461666, 42.016666, 0.0 ] } },
{ "type": "Feature", "properties": { "Name": "BALVA WYP", "description": "GPS 47.118832 19.555258", "timestamp": null, "begin": null, "end": null, "altitudeMode": null, "tessellate": -1, "extrude": 0, "visibility": -1, "drawOrder": null, "icon": null }, "geometry": { "type": "Point", "coordinates": [ 19.555258, 47.118832, 0.0 ] } },
{ "type": "Feature", "properties": { "Name": "BALYI WYP", "description": "GPS 42.433334 76.133331", "timestamp": null, "begin": null, "end": null, "altitudeMode": null, "tessellate": -1, "extrude": 0, "visibility": -1, "drawOrder": null, "icon": null }, "geometry": { "type": "Point", "coordinates": [ 76.133331, 42.433334, 0.0 ] } },
{ "type": "Feature", "properties": { "Name": "BALYK WYP", "description": "GPS 60.986668 73.213333", "timestamp": null, "begin": null, "end": null, "altitudeMode": null, "tessellate": -1, "extrude": 0, "visibility": -1, "drawOrder": null, "icon": null }, "geometry": { "type": "Point", "coordinates": [ 73.213333, 60.986668, 0.0 ] } },
{ "type": "Feature", "properties": { "Name": "BAMAK WYP", "description": "GPS 40.075001 50.196667", "timestamp": null, "begin": null, "end": null, "altitudeMode": null, "tessellate": -1, "extrude": 0, "visibility": -1, "drawOrder": null, "icon": null }, "geometry": { "type": "Point", "coordinates": [ 50.196667, 40.075001, 0.0 ] } },
{ "type": "Feature", "properties": { "Name": "BAMAN WYP", "description": "GPS 57.099998 63.716667", "timestamp": null, "begin": null, "end": null, "altitudeMode": null, "tessellate": -1, "extrude": 0, "visibility": -1, "drawOrder": null, "icon": null }, "geometry": { "type": "Point", "coordinates": [ 63.716667, 57.099998, 0.0 ] } },
{ "type": "Feature", "properties": { "Name": "BAMIR WYP", "description": "GPS 55.271667 44.788334", "timestamp": null, "begin": null, "end": null, "altitudeMode": null, "tessellate": -1, "extrude": 0, "visibility": -1, "drawOrder": null, "icon": null }, "geometry": { "type": "Point", "coordinates": [ 44.788334, 55.271667, 0.0 ] } },
{ "type": "Feature", "properties": { "Name": "BAMUT WYP", "description": "GPS 41.861668 69.391945", "timestamp": null, "begin": null, "end": null, "altitudeMode": null, "tessellate": -1, "extrude": 0, "visibility": -1, "drawOrder": null, "icon": null }, "geometry": { "type": "Point", "coordinates": [ 69.391945, 41.861668, 0.0 ] } },
{ "type": "Feature", "properties": { "Name": "BANAK WYP", "description": "GPS 52.580002 58.325001", "timestamp": null, "begin": null, "end": null, "altitudeMode": null, "tessellate": -1, "extrude": 0, "visibility": -1, "drawOrder": null, "icon": null }, "geometry": { "type": "Point", "coordinates": [ 58.325001, 52.580002, 0.0 ] } },
{ "type": "Feature", "properties": { "Name": "BANAN WYP", "description": "GPS 54.549999 93.466667", "timestamp": null, "begin": null, "end": null, "altitudeMode": null, "tessellate": -1, "extrude": 0, "visibility": -1, "drawOrder": null, "icon": null }, "geometry": { "type": "Point", "coordinates": [ 93.466667, 54.549999, 0.0 ] } },
{ "type": "Feature", "properties": { "Name": "BANAR WYP", "description": "GPS 50.541668 27.254999", "timestamp": null, "begin": null, "end": null, "altitudeMode": null, "tessellate": -1, "extrude": 0, "visibility": -1, "drawOrder": null, "icon": null }, "geometry": { "type": "Point", "coordinates": [ 27.254999, 50.541668, 0.0 ] } },
{ "type": "Feature", "properties": { "Name": "BANAS WYP", "description": "GPS 38.75 67.26667", "timestamp": null, "begin": null, "end": null, "altitudeMode": null, "tessellate": -1, "extrude": 0, "visibility": -1, "drawOrder": null, "icon": null }, "geometry": { "type": "Point", "coordinates": [ 67.26667, 38.75, 0.0 ] } },
{ "type": "Feature", "properties": { "Name": "BANIT WYP", "description": "GPS 46.618332 31.533333", "timestamp": null, "begin": null, "end": null, "altitudeMode": null, "tessellate": -1, "extrude": 0, "visibility": -1, "drawOrder": null, "icon": null }, "geometry": { "type": "Point", "coordinates": [ 31.533333, 46.618332, 0.0 ] } },
{ "type": "Feature", "properties": { "Name": "BANOS WYP", "description": "GPS 50.191666 72.674164", "timestamp": null, "begin": null, "end": null, "altitudeMode": null, "tessellate": -1, "extrude": 0, "visibility": -1, "drawOrder": null, "icon": null }, "geometry": { "type": "Point", "coordinates": [ 72.674164, 50.191666, 0.0 ] } },
{ "type": "Feature", "properties": { "Name": "BANTA WYP", "description": "GPS 65.948334 83.203331", "timestamp": null, "begin": null, "end": null, "altitudeMode": null, "tessellate": -1, "extrude": 0, "visibility": -1, "drawOrder": null, "icon": null }, "geometry": { "type": "Point", "coordinates": [ 83.203331, 65.948334, 0.0 ] } },
{ "type": "Feature", "properties": { "Name": "BANUR WYP", "description": "GPS 43.683334 30.966667", "timestamp": null, "begin": null, "end": null, "altitudeMode": null, "tessellate": -1, "extrude": 0, "visibility": -1, "drawOrder": null, "icon": null }, "geometry": { "type": "Point", "coordinates": [ 30.966667, 43.683334, 0.0 ] } },
{ "type": "Feature", "properties": { "Name": "BARAR WYP", "description": "GPS 42.849445 70.049446", "timestamp": null, "begin": null, "end": null, "altitudeMode": null, "tessellate": -1, "extrude": 0, "visibility": -1, "drawOrder": null, "icon": null }, "geometry": { "type": "Point", "coordinates": [ 70.049446, 42.849445, 0.0 ] } },
{ "type": "Feature", "properties": { "Name": "BARGI WYP", "description": "GPS 48.921665 25.985001", "timestamp": null, "begin": null, "end": null, "altitudeMode": null, "tessellate": -1, "extrude": 0, "visibility": -1, "drawOrder": null, "icon": null }, "geometry": { "type": "Point", "coordinates": [ 25.985001, 48.921665, 0.0 ] } },
{ "type": "Feature", "properties": { "Name": "BARKI WYP", "description": "GPS 54.864723 71.0", "timestamp": null, "begin": null, "end": null, "altitudeMode": null, "tessellate": -1, "extrude": 0, "visibility": -1, "drawOrder": null, "icon": null }, "geometry": { "type": "Point", "coordinates": [ 71.0, 54.864723, 0.0 ] } },
{ "type": "Feature", "properties": { "Name": "BARNU WYP", "description": "GPS 52.186668 18.0", "timestamp": null, "begin": null, "end": null, "altitudeMode": null, "tessellate": -1, "extrude": 0, "visibility": -1, "drawOrder": null, "icon": null }, "geometry": { "type": "Point", "coordinates": [ 18.0, 52.186668, 0.0 ] } },
{ "type": "Feature", "properties": { "Name": "BAROR WYP", "description": "GPS 47.628334 31.846666", "timestamp": null, "begin": null, "end": null, "altitudeMode": null, "tessellate": -1, "extrude": 0, "visibility": -1, "drawOrder": null, "icon": null }, "geometry": { "type": "Point", "coordinates": [ 31.846666, 47.628334, 0.0 ] } },
{ "type": "Feature", "properties": { "Name": "BARSU WYP", "description": "GPS 46.503334 57.666668", "timestamp": null, "begin": null, "end": null, "altitudeMode": null, "tessellate": -1, "extrude": 0, "visibility": -1, "drawOrder": null, "icon": null }, "geometry": { "type": "Point", "coordinates": [ 57.666668, 46.503334, 0.0 ] } },
{ "type": "Feature", "properties": { "Name": "BARTA WYP", "description": "GPS 46.903812 24.091778", "timestamp": null, "begin": null, "end": null, "altitudeMode": null, "tessellate": -1, "extrude": 0, "visibility": -1, "drawOrder": null, "icon": null }, "geometry": { "type": "Point", "coordinates": [ 24.091778, 46.903812, 0.0 ] } },
{ "type": "Feature", "properties": { "Name": "BARUK WYP", "description": "GPS 44.541393 28.569641", "timestamp": null, "begin": null, "end": null, "altitudeMode": null, "tessellate": -1, "extrude": 0, "visibility": -1, "drawOrder": null, "icon": null }, "geometry": { "type": "Point", "coordinates": [ 28.569641, 44.541393, 0.0 ] } },
{ "type": "Feature", "properties": { "Name": "BARUZ WYP", "description": "GPS 41.866665 42.816666", "timestamp": null, "begin": null, "end": null, "altitudeMode": null, "tessellate": -1, "extrude": 0, "visibility": -1, "drawOrder": null, "icon": null }, "geometry": { "type": "Point", "coordinates": [ 42.816666, 41.866665, 0.0 ] } },
{ "type": "Feature", "properties": { "Name": "BARVA WYP", "description": "GPS 56.818333 25.5875", "timestamp": null, "begin": null, "end": null, "altitudeMode": null, "tessellate": -1, "extrude": 0, "visibility": -1, "drawOrder": null, "icon": null }, "geometry": { "type": "Point", "coordinates": [ 25.5875, 56.818333, 0.0 ] } },
{ "type": "Feature", "properties": { "Name": "BASAN WYP", "description": "GPS 43.572224 73.908058", "timestamp": null, "begin": null, "end": null, "altitudeMode": null, "tessellate": -1, "extrude": 0, "visibility": -1, "drawOrder": null, "icon": null }, "geometry": { "type": "Point", "coordinates": [ 73.908058, 43.572224, 0.0 ] } },
{ "type": "Feature", "properties": { "Name": "BASAN WYP", "description": "GPS 53.733334 46.766666", "timestamp": null, "begin": null, "end": null, "altitudeMode": null, "tessellate": -1, "extrude": 0, "visibility": -1, "drawOrder": null, "icon": null }, "geometry": { "type": "Point", "coordinates": [ 46.766666, 53.733334, 0.0 ] } },
{ "type": "Feature", "properties": { "Name": "BASAS WYP", "description": "GPS 44.839443 54.314999", "timestamp": null, "begin": null, "end": null, "altitudeMode": null, "tessellate": -1, "extrude": 0, "visibility": -1, "drawOrder": null, "icon": null }, "geometry": { "type": "Point", "coordinates": [ 54.314999, 44.839443, 0.0 ] } },
{ "type": "Feature", "properties": { "Name": "BASEL WYP", "description": "GPS 56.75 91.716667", "timestamp": null, "begin": null, "end": null, "altitudeMode": null, "tessellate": -1, "extrude": 0, "visibility": -1, "drawOrder": null, "icon": null }, "geometry": { "type": "Point", "coordinates": [ 91.716667, 56.75, 0.0 ] } },
{ "type": "Feature", "properties": { "Name": "BASKO WYP", "description": "GPS 46.200001 46.849998", "timestamp": null, "begin": null, "end": null, "altitudeMode": null, "tessellate": -1, "extrude": 0, "visibility": -1, "drawOrder": null, "icon": null }, "geometry": { "type": "Point", "coordinates": [ 46.849998, 46.200001, 0.0 ] } },
{ "type": "Feature", "properties": { "Name": "BASPA WYP", "description": "GPS 50.362221 70.666946", "timestamp": null, "begin": null, "end": null, "altitudeMode": null, "tessellate": -1, "extrude": 0, "visibility": -1, "drawOrder": null, "icon": null }, "geometry": { "type": "Point", "coordinates": [ 70.666946, 50.362221, 0.0 ] } },
{ "type": "Feature", "properties": { "Name": "BASUN WYP", "description": "GPS 38.150002 67.013336", "timestamp": null, "begin": null, "end": null, "altitudeMode": null, "tessellate": -1, "extrude": 0, "visibility": -1, "drawOrder": null, "icon": null }, "geometry": { "type": "Point", "coordinates": [ 67.013336, 38.150002, 0.0 ] } },
{ "type": "Feature", "properties": { "Name": "BATIN WYP", "description": "GPS 46.015308 23.775265", "timestamp": null, "begin": null, "end": null, "altitudeMode": null, "tessellate": -1, "extrude": 0, "visibility": -1, "drawOrder": null, "icon": null }, "geometry": { "type": "Point", "coordinates": [ 23.775265, 46.015308, 0.0 ] } },
{ "type": "Feature", "properties": { "Name": "BATKU WYP", "description": "GPS 55.459167 26.551111", "timestamp": null, "begin": null, "end": null, "altitudeMode": null, "tessellate": -1, "extrude": 0, "visibility": -1, "drawOrder": null, "icon": null }, "geometry": { "type": "Point", "coordinates": [ 26.551111, 55.459167, 0.0 ] } },
{ "type": "Feature", "properties": { "Name": "BATUR WYP", "description": "GPS 52.251667 48.138332", "timestamp": null, "begin": null, "end": null, "altitudeMode": null, "tessellate": -1, "extrude": 0, "visibility": -1, "drawOrder": null, "icon": null }, "geometry": { "type": "Point", "coordinates": [ 48.138332, 52.251667, 0.0 ] } },
{ "type": "Feature", "properties": { "Name": "BAVAG WYP", "description": "GPS 53.305279 66.876389", "timestamp": null, "begin": null, "end": null, "altitudeMode": null, "tessellate": -1, "extrude": 0, "visibility": -1, "drawOrder": null, "icon": null }, "geometry": { "type": "Point", "coordinates": [ 66.876389, 53.305279, 0.0 ] } },
{ "type": "Feature", "properties": { "Name": "BAVOK WYP", "description": "GPS 50.004166 18.201389", "timestamp": null, "begin": null, "end": null, "altitudeMode": null, "tessellate": -1, "extrude": 0, "visibility": -1, "drawOrder": null, "icon": null }, "geometry": { "type": "Point", "coordinates": [ 18.201389, 50.004166, 0.0 ] } },
{ "type": "Feature", "properties": { "Name": "BAZAK WYP", "description": "GPS 40.983334 72.716667", "timestamp": null, "begin": null, "end": null, "altitudeMode": null, "tessellate": -1, "extrude": 0, "visibility": -1, "drawOrder": null, "icon": null }, "geometry": { "type": "Point", "coordinates": [ 72.716667, 40.983334, 0.0 ] } },
{ "type": "Feature", "properties": { "Name": "BD95 WYP", "description": "GPS 53.279999 100.981667", "timestamp": null, "begin": null, "end": null, "altitudeMode": null, "tessellate": -1, "extrude": 0, "visibility": -1, "drawOrder": null, "icon": null }, "geometry": { "type": "Point", "coordinates": [ 100.981667, 53.279999, 0.0 ] } },
{ "type": "Feature", "properties": { "Name": "BEBRO WYP", "description": "GPS 49.355 34.518333", "timestamp": null, "begin": null, "end": null, "altitudeMode": null, "tessellate": -1, "extrude": 0, "visibility": -1, "drawOrder": null, "icon": null }, "geometry": { "type": "Point", "coordinates": [ 34.518333, 49.355, 0.0 ] } },
{ "type": "Feature", "properties": { "Name": "BEDAN WYP", "description": "GPS 45.683334 35.799999", "timestamp": null, "begin": null, "end": null, "altitudeMode": null, "tessellate": -1, "extrude": 0, "visibility": -1, "drawOrder": null, "icon": null }, "geometry": { "type": "Point", "coordinates": [ 35.799999, 45.683334, 0.0 ] } },
{ "type": "Feature", "properties": { "Name": "BEDKA WYP", "description": "GPS 50.228333 72.276108", "timestamp": null, "begin": null, "end": null, "altitudeMode": null, "tessellate": -1, "extrude": 0, "visibility": -1, "drawOrder": null, "icon": null }, "geometry": { "type": "Point", "coordinates": [ 72.276108, 50.228333, 0.0 ] } },
{ "type": "Feature", "properties": { "Name": "BEDUR WYP", "description": "GPS 43.592224 76.964165", "timestamp": null, "begin": null, "end": null, "altitudeMode": null, "tessellate": -1, "extrude": 0, "visibility": -1, "drawOrder": null, "icon": null }, "geometry": { "type": "Point", "coordinates": [ 76.964165, 43.592224, 0.0 ] } },
{ "type": "Feature", "properties": { "Name": "BEGIK WYP", "description": "GPS 52.504166 76.10778", "timestamp": null, "begin": null, "end": null, "altitudeMode": null, "tessellate": -1, "extrude": 0, "visibility": -1, "drawOrder": null, "icon": null }, "geometry": { "type": "Point", "coordinates": [ 76.10778, 52.504166, 0.0 ] } },
{ "type": "Feature", "properties": { "Name": "BEGLI WYP", "description": "GPS 40.875 55.014999", "timestamp": null, "begin": null, "end": null, "altitudeMode": null, "tessellate": -1, "extrude": 0, "visibility": -1, "drawOrder": null, "icon": null }, "geometry": { "type": "Point", "coordinates": [ 55.014999, 40.875, 0.0 ] } },
{ "type": "Feature", "properties": { "Name": "BEKAR WYP", "description": "GPS 47.616665 31.75", "timestamp": null, "begin": null, "end": null, "altitudeMode": null, "tessellate": -1, "extrude": 0, "visibility": -1, "drawOrder": null, "icon": null }, "geometry": { "type": "Point", "coordinates": [ 31.75, 47.616665, 0.0 ] } },
{ "type": "Feature", "properties": { "Name": "BEKAS WYP", "description": "GPS 44.062778 65.1175", "timestamp": null, "begin": null, "end": null, "altitudeMode": null, "tessellate": -1, "extrude": 0, "visibility": -1, "drawOrder": null, "icon": null }, "geometry": { "type": "Point", "coordinates": [ 65.1175, 44.062778, 0.0 ] } },
{ "type": "Feature", "properties": { "Name": "BEKIR WYP", "description": "GPS 41.058334 47.888332", "timestamp": null, "begin": null, "end": null, "altitudeMode": null, "tessellate": -1, "extrude": 0, "visibility": -1, "drawOrder": null, "icon": null }, "geometry": { "type": "Point", "coordinates": [ 47.888332, 41.058334, 0.0 ] } },
{ "type": "Feature", "properties": { "Name": "BEKOR WYP", "description": "GPS 49.751389 62.513889", "timestamp": null, "begin": null, "end": null, "altitudeMode": null, "tessellate": -1, "extrude": 0, "visibility": -1, "drawOrder": null, "icon": null }, "geometry": { "type": "Point", "coordinates": [ 62.513889, 49.751389, 0.0 ] } },
{ "type": "Feature", "properties": { "Name": "BELAN WYP", "description": "GPS 43.919998 45.921665", "timestamp": null, "begin": null, "end": null, "altitudeMode": null, "tessellate": -1, "extrude": 0, "visibility": -1, "drawOrder": null, "icon": null }, "geometry": { "type": "Point", "coordinates": [ 45.921665, 43.919998, 0.0 ] } },
{ "type": "Feature", "properties": { "Name": "BEMES WYP", "description": "GPS 49.769661 14.619355", "timestamp": null, "begin": null, "end": null, "altitudeMode": null, "tessellate": -1, "extrude": 0, "visibility": -1, "drawOrder": null, "icon": null }, "geometry": { "type": "Point", "coordinates": [ 14.619355, 49.769661, 0.0 ] } },
{ "type": "Feature", "properties": { "Name": "BEMRI WYP", "description": "GPS 56.747223 25.5", "timestamp": null, "begin": null, "end": null, "altitudeMode": null, "tessellate": -1, "extrude": 0, "visibility": -1, "drawOrder": null, "icon": null }, "geometry": { "type": "Point", "coordinates": [ 25.5, 56.747223, 0.0 ] } },
{ "type": "Feature", "properties": { "Name": "BENZI WYP", "description": "GPS 42.685001 49.188332", "timestamp": null, "begin": null, "end": null, "altitudeMode": null, "tessellate": -1, "extrude": 0, "visibility": -1, "drawOrder": null, "icon": null }, "geometry": { "type": "Point", "coordinates": [ 49.188332, 42.685001, 0.0 ] } },
{ "type": "Feature", "properties": { "Name": "BEREG WYP", "description": "GPS 52.608334 30.049999", "timestamp": null, "begin": null, "end": null, "altitudeMode": null, "tessellate": -1, "extrude": 0, "visibility": -1, "drawOrder": null, "icon": null }, "geometry": { "type": "Point", "coordinates": [ 30.049999, 52.608334, 0.0 ] } },
{ "type": "Feature", "properties": { "Name": "BEREN WYP", "description": "GPS 58.933334 28.35", "timestamp": null, "begin": null, "end": null, "altitudeMode": null, "tessellate": -1, "extrude": 0, "visibility": -1, "drawOrder": null, "icon": null }, "geometry": { "type": "Point", "coordinates": [ 28.35, 58.933334, 0.0 ] } },
{ "type": "Feature", "properties": { "Name": "BERIL WYP", "description": "GPS 40.883335 45.433334", "timestamp": null, "begin": null, "end": null, "altitudeMode": null, "tessellate": -1, "extrude": 0, "visibility": -1, "drawOrder": null, "icon": null }, "geometry": { "type": "Point", "coordinates": [ 45.433334, 40.883335, 0.0 ] } },
{ "type": "Feature", "properties": { "Name": "BERIS WYP", "description": "GPS 54.073334 28.91", "timestamp": null, "begin": null, "end": null, "altitudeMode": null, "tessellate": -1, "extrude": 0, "visibility": -1, "drawOrder": null, "icon": null }, "geometry": { "type": "Point", "coordinates": [ 28.91, 54.073334, 0.0 ] } },
{ "type": "Feature", "properties": { "Name": "BERNO WYP", "description": "GPS 58.150002 34.366665", "timestamp": null, "begin": null, "end": null, "altitudeMode": null, "tessellate": -1, "extrude": 0, "visibility": -1, "drawOrder": null, "icon": null }, "geometry": { "type": "Point", "coordinates": [ 34.366665, 58.150002, 0.0 ] } },
{ "type": "Feature", "properties": { "Name": "BERVA WYP", "description": "GPS 48.617569 17.541166", "timestamp": null, "begin": null, "end": null, "altitudeMode": null, "tessellate": -1, "extrude": 0, "visibility": -1, "drawOrder": null, "icon": null }, "geometry": { "type": "Point", "coordinates": [ 17.541166, 48.617569, 0.0 ] } },
{ "type": "Feature", "properties": { "Name": "BERVI WYP", "description": "GPS 43.661667 74.205002", "timestamp": null, "begin": null, "end": null, "altitudeMode": null, "tessellate": -1, "extrude": 0, "visibility": -1, "drawOrder": null, "icon": null }, "geometry": { "type": "Point", "coordinates": [ 74.205002, 43.661667, 0.0 ] } },
{ "type": "Feature", "properties": { "Name": "BERZA WYP", "description": "GPS 56.033333 93.133331", "timestamp": null, "begin": null, "end": null, "altitudeMode": null, "tessellate": -1, "extrude": 0, "visibility": -1, "drawOrder": null, "icon": null }, "geometry": { "type": "Point", "coordinates": [ 93.133331, 56.033333, 0.0 ] } },
{ "type": "Feature", "properties": { "Name": "BESOL WYP", "description": "GPS 50.38139 61.258888", "timestamp": null, "begin": null, "end": null, "altitudeMode": null, "tessellate": -1, "extrude": 0, "visibility": -1, "drawOrder": null, "icon": null }, "geometry": { "type": "Point", "coordinates": [ 61.258888, 50.38139, 0.0 ] } },
{ "type": "Feature", "properties": { "Name": "BESTO WYP", "description": "GPS 51.75639 17.355278", "timestamp": null, "begin": null, "end": null, "altitudeMode": null, "tessellate": -1, "extrude": 0, "visibility": -1, "drawOrder": null, "icon": null }, "geometry": { "type": "Point", "coordinates": [ 17.355278, 51.75639, 0.0 ] } },
{ "type": "Feature", "properties": { "Name": "BETEG WYP", "description": "GPS 45.183334 36.383335", "timestamp": null, "begin": null, "end": null, "altitudeMode": null, "tessellate": -1, "extrude": 0, "visibility": -1, "drawOrder": null, "icon": null }, "geometry": { "type": "Point", "coordinates": [ 36.383335, 45.183334, 0.0 ] } },
{ "type": "Feature", "properties": { "Name": "BETOR WYP", "description": "GPS 43.868332 48.441666", "timestamp": null, "begin": null, "end": null, "altitudeMode": null, "tessellate": -1, "extrude": 0, "visibility": -1, "drawOrder": null, "icon": null }, "geometry": { "type": "Point", "coordinates": [ 48.441666, 43.868332, 0.0 ] } },
{ "type": "Feature", "properties": { "Name": "BETPU WYP", "description": "GPS 45.96611 67.995834", "timestamp": null, "begin": null, "end": null, "altitudeMode": null, "tessellate": -1, "extrude": 0, "visibility": -1, "drawOrder": null, "icon": null }, "geometry": { "type": "Point", "coordinates": [ 67.995834, 45.96611, 0.0 ] } },
{ "type": "Feature", "properties": { "Name": "BETTA WYP", "description": "GPS 44.366665 38.383335", "timestamp": null, "begin": null, "end": null, "altitudeMode": null, "tessellate": -1, "extrude": 0, "visibility": -1, "drawOrder": null, "icon": null }, "geometry": { "type": "Point", "coordinates": [ 38.383335, 44.366665, 0.0 ] } },
{ "type": "Feature", "properties": { "Name": "BG62 WYP", "description": "GPS 46.005001 44.063332", "timestamp": null, "begin": null, "end": null, "altitudeMode": null, "tessellate": -1, "extrude": 0, "visibility": -1, "drawOrder": null, "icon": null }, "geometry": { "type": "Point", "coordinates": [ 44.063332, 46.005001, 0.0 ] } },
{ "type": "Feature", "properties": { "Name": "BI97 WYP", "description": "GPS 56.428333 56.251667", "timestamp": null, "begin": null, "end": null, "altitudeMode": null, "tessellate": -1, "extrude": 0, "visibility": -1, "drawOrder": null, "icon": null }, "geometry": { "type": "Point", "coordinates": [ 56.251667, 56.428333, 0.0 ] } },
{ "type": "Feature", "properties": { "Name": "BIBOR WYP", "description": "GPS 47.258869 25.162521", "timestamp": null, "begin": null, "end": null, "altitudeMode": null, "tessellate": -1, "extrude": 0, "visibility": -1, "drawOrder": null, "icon": null }, "geometry": { "type": "Point", "coordinates": [ 25.162521, 47.258869, 0.0 ] } },
{ "type": "Feature", "properties": { "Name": "BIDAR WYP", "description": "GPS 44.583332 35.0", "timestamp": null, "begin": null, "end": null, "altitudeMode": null, "tessellate": -1, "extrude": 0, "visibility": -1, "drawOrder": null, "icon": null }, "geometry": { "type": "Point", "coordinates": [ 35.0, 44.583332, 0.0 ] } },
{ "type": "Feature", "properties": { "Name": "BIGMA WYP", "description": "GPS 46.690117 26.436129", "timestamp": null, "begin": null, "end": null, "altitudeMode": null, "tessellate": -1, "extrude": 0, "visibility": -1, "drawOrder": null, "icon": null }, "geometry": { "type": "Point", "coordinates": [ 26.436129, 46.690117, 0.0 ] } },
{ "type": "Feature", "properties": { "Name": "BIKAR WYP", "description": "GPS 45.473331 28.205", "timestamp": null, "begin": null, "end": null, "altitudeMode": null, "tessellate": -1, "extrude": 0, "visibility": -1, "drawOrder": null, "icon": null }, "geometry": { "type": "Point", "coordinates": [ 28.205, 45.473331, 0.0 ] } },
{ "type": "Feature", "properties": { "Name": "BIKDA WYP", "description": "GPS 37.860001 59.566666", "timestamp": null, "begin": null, "end": null, "altitudeMode": null, "tessellate": -1, "extrude": 0, "visibility": -1, "drawOrder": null, "icon": null }, "geometry": { "type": "Point", "coordinates": [ 59.566666, 37.860001, 0.0 ] } },
{ "type": "Feature", "properties": { "Name": "BILGA WYP", "description": "GPS 48.407501 55.571388", "timestamp": null, "begin": null, "end": null, "altitudeMode": null, "tessellate": -1, "extrude": 0, "visibility": -1, "drawOrder": null, "icon": null }, "geometry": { "type": "Point", "coordinates": [ 55.571388, 48.407501, 0.0 ] } },
{ "type": "Feature", "properties": { "Name": "BILNA WYP", "description": "GPS 49.393532 18.4473", "timestamp": null, "begin": null, "end": null, "altitudeMode": null, "tessellate": -1, "extrude": 0, "visibility": -1, "drawOrder": null, "icon": null }, "geometry": { "type": "Point", "coordinates": [ 18.4473, 49.393532, 0.0 ] } },
{ "type": "Feature", "properties": { "Name": "BIMBA WYP", "description": "GPS 63.939999 34.296665", "timestamp": null, "begin": null, "end": null, "altitudeMode": null, "tessellate": -1, "extrude": 0, "visibility": -1, "drawOrder": null, "icon": null }, "geometry": { "type": "Point", "coordinates": [ 34.296665, 63.939999, 0.0 ] } },
{ "type": "Feature", "properties": { "Name": "BINOL WYP", "description": "GPS 43.583332 40.0", "timestamp": null, "begin": null, "end": null, "altitudeMode": null, "tessellate": -1, "extrude": 0, "visibility": -1, "drawOrder": null, "icon": null }, "geometry": { "type": "Point", "coordinates": [ 40.0, 43.583332, 0.0 ] } },
{ "type": "Feature", "properties": { "Name": "BINOM WYP", "description": "GPS 44.633335 37.016666", "timestamp": null, "begin": null, "end": null, "altitudeMode": null, "tessellate": -1, "extrude": 0, "visibility": -1, "drawOrder": null, "icon": null }, "geometry": { "type": "Point", "coordinates": [ 37.016666, 44.633335, 0.0 ] } },
{ "type": "Feature", "properties": { "Name": "BIOTA WYP", "description": "GPS 44.35611 76.70639", "timestamp": null, "begin": null, "end": null, "altitudeMode": null, "tessellate": -1, "extrude": 0, "visibility": -1, "drawOrder": null, "icon": null }, "geometry": { "type": "Point", "coordinates": [ 76.70639, 44.35611, 0.0 ] } },
{ "type": "Feature", "properties": { "Name": "BIRGA WYP", "description": "GPS 52.695557 21.175556", "timestamp": null, "begin": null, "end": null, "altitudeMode": null, "tessellate": -1, "extrude": 0, "visibility": -1, "drawOrder": null, "icon": null }, "geometry": { "type": "Point", "coordinates": [ 21.175556, 52.695557, 0.0 ] } },
{ "type": "Feature", "properties": { "Name": "BIRSI WYP", "description": "GPS 59.115276 26.0375", "timestamp": null, "begin": null, "end": null, "altitudeMode": null, "tessellate": -1, "extrude": 0, "visibility": -1, "drawOrder": null, "icon": null }, "geometry": { "type": "Point", "coordinates": [ 26.0375, 59.115276, 0.0 ] } },
{ "type": "Feature", "properties": { "Name": "BIRYO WYP", "description": "GPS 47.966667 39.733334", "timestamp": null, "begin": null, "end": null, "altitudeMode": null, "tessellate": -1, "extrude": 0, "visibility": -1, "drawOrder": null, "icon": null }, "geometry": { "type": "Point", "coordinates": [ 39.733334, 47.966667, 0.0 ] } },
{ "type": "Feature", "properties": { "Name": "BISGI WYP", "description": "GPS 50.272343 12.660525", "timestamp": null, "begin": null, "end": null, "altitudeMode": null, "tessellate": -1, "extrude": 0, "visibility": -1, "drawOrder": null, "icon": null }, "geometry": { "type": "Point", "coordinates": [ 12.660525, 50.272343, 0.0 ] } },
{ "type": "Feature", "properties": { "Name": "BITAK WYP", "description": "GPS 60.266666 29.76", "timestamp": null, "begin": null, "end": null, "altitudeMode": null, "tessellate": -1, "extrude": 0, "visibility": -1, "drawOrder": null, "icon": null }, "geometry": { "type": "Point", "coordinates": [ 29.76, 60.266666, 0.0 ] } },
{ "type": "Feature", "properties": { "Name": "BITSA WYP", "description": "GPS 55.566666 37.616665", "timestamp": null, "begin": null, "end": null, "altitudeMode": null, "tessellate": -1, "extrude": 0, "visibility": -1, "drawOrder": null, "icon": null }, "geometry": { "type": "Point", "coordinates": [ 37.616665, 55.566666, 0.0 ] } },
{ "type": "Feature", "properties": { "Name": "BITSI WYP", "description": "GPS 49.308277 16.236315", "timestamp": null, "begin": null, "end": null, "altitudeMode": null, "tessellate": -1, "extrude": 0, "visibility": -1, "drawOrder": null, "icon": null }, "geometry": { "type": "Point", "coordinates": [ 16.236315, 49.308277, 0.0 ] } },
{ "type": "Feature", "properties": { "Name": "BITUL WYP", "description": "GPS 55.25 37.766666", "timestamp": null, "begin": null, "end": null, "altitudeMode": null, "tessellate": -1, "extrude": 0, "visibility": -1, "drawOrder": null, "icon": null }, "geometry": { "type": "Point", "coordinates": [ 37.766666, 55.25, 0.0 ] } },
{ "type": "Feature", "properties": { "Name": "BLAJA WYP", "description": "GPS 46.181393 24.011585", "timestamp": null, "begin": null, "end": null, "altitudeMode": null, "tessellate": -1, "extrude": 0, "visibility": -1, "drawOrder": null, "icon": null }, "geometry": { "type": "Point", "coordinates": [ 24.011585, 46.181393, 0.0 ] } },
{ "type": "Feature", "properties": { "Name": "BODAL WYP", "description": "GPS 49.464108 15.782702", "timestamp": null, "begin": null, "end": null, "altitudeMode": null, "tessellate": -1, "extrude": 0, "visibility": -1, "drawOrder": null, "icon": null }, "geometry": { "type": "Point", "coordinates": [ 15.782702, 49.464108, 0.0 ] } },
{ "type": "Feature", "properties": { "Name": "BODAN WYP", "description": "GPS 40.938332 70.356667", "timestamp": null, "begin": null, "end": null, "altitudeMode": null, "tessellate": -1, "extrude": 0, "visibility": -1, "drawOrder": null, "icon": null }, "geometry": { "type": "Point", "coordinates": [ 70.356667, 40.938332, 0.0 ] } },
{ "type": "Feature", "properties": { "Name": "BOGDA WYP", "description": "GPS 45.063416 27.922308", "timestamp": null, "begin": null, "end": null, "altitudeMode": null, "tessellate": -1, "extrude": 0, "visibility": -1, "drawOrder": null, "icon": null }, "geometry": { "type": "Point", "coordinates": [ 27.922308, 45.063416, 0.0 ] } },
{ "type": "Feature", "properties": { "Name": "BOKAL WYP", "description": "GPS 51.883335 40.733334", "timestamp": null, "begin": null, "end": null, "altitudeMode": null, "tessellate": -1, "extrude": 0, "visibility": -1, "drawOrder": null, "icon": null }, "geometry": { "type": "Point", "coordinates": [ 40.733334, 51.883335, 0.0 ] } },
{ "type": "Feature", "properties": { "Name": "BOKIS WYP", "description": "GPS 50.959999 83.553337", "timestamp": null, "begin": null, "end": null, "altitudeMode": null, "tessellate": -1, "extrude": 0, "visibility": -1, "drawOrder": null, "icon": null }, "geometry": { "type": "Point", "coordinates": [ 83.553337, 50.959999, 0.0 ] } },
{ "type": "Feature", "properties": { "Name": "BOLBA WYP", "description": "GPS 50.258335 24.344999", "timestamp": null, "begin": null, "end": null, "altitudeMode": null, "tessellate": -1, "extrude": 0, "visibility": -1, "drawOrder": null, "icon": null }, "geometry": { "type": "Point", "coordinates": [ 24.344999, 50.258335, 0.0 ] } },
{ "type": "Feature", "properties": { "Name": "BOLGO WYP", "description": "GPS 49.690834 56.697224", "timestamp": null, "begin": null, "end": null, "altitudeMode": null, "tessellate": -1, "extrude": 0, "visibility": -1, "drawOrder": null, "icon": null }, "geometry": { "type": "Point", "coordinates": [ 56.697224, 49.690834, 0.0 ] } },
{ "type": "Feature", "properties": { "Name": "BOLMU WYP", "description": "GPS 48.985786 16.95579", "timestamp": null, "begin": null, "end": null, "altitudeMode": null, "tessellate": -1, "extrude": 0, "visibility": -1, "drawOrder": null, "icon": null }, "geometry": { "type": "Point", "coordinates": [ 16.95579, 48.985786, 0.0 ] } },
{ "type": "Feature", "properties": { "Name": "BOLTA WYP", "description": "GPS 40.066666 66.133331", "timestamp": null, "begin": null, "end": null, "altitudeMode": null, "tessellate": -1, "extrude": 0, "visibility": -1, "drawOrder": null, "icon": null }, "geometry": { "type": "Point", "coordinates": [ 66.133331, 40.066666, 0.0 ] } },
{ "type": "Feature", "properties": { "Name": "BOLUK WYP", "description": "GPS 54.900002 21.083334", "timestamp": null, "begin": null, "end": null, "altitudeMode": null, "tessellate": -1, "extrude": 0, "visibility": -1, "drawOrder": null, "icon": null }, "geometry": { "type": "Point", "coordinates": [ 21.083334, 54.900002, 0.0 ] } },
{ "type": "Feature", "properties": { "Name": "BOMLI WYP", "description": "GPS 60.75 72.75", "timestamp": null, "begin": null, "end": null, "altitudeMode": null, "tessellate": -1, "extrude": 0, "visibility": -1, "drawOrder": null, "icon": null }, "geometry": { "type": "Point", "coordinates": [ 72.75, 60.75, 0.0 ] } },
{ "type": "Feature", "properties": { "Name": "BORAK WYP", "description": "GPS 48.906666 42.93", "timestamp": null, "begin": null, "end": null, "altitudeMode": null, "tessellate": -1, "extrude": 0, "visibility": -1, "drawOrder": null, "icon": null }, "geometry": { "type": "Point", "coordinates": [ 42.93, 48.906666, 0.0 ] } },
{ "type": "Feature", "properties": { "Name": "BORAT WYP", "description": "GPS 51.466667 29.588333", "timestamp": null, "begin": null, "end": null, "altitudeMode": null, "tessellate": -1, "extrude": 0, "visibility": -1, "drawOrder": null, "icon": null }, "geometry": { "type": "Point", "coordinates": [ 29.588333, 51.466667, 0.0 ] } },
{ "type": "Feature", "properties": { "Name": "BORIS WYP", "description": "GPS 42.857498 66.092499", "timestamp": null, "begin": null, "end": null, "altitudeMode": null, "tessellate": -1, "extrude": 0, "visibility": -1, "drawOrder": null, "icon": null }, "geometry": { "type": "Point", "coordinates": [ 66.092499, 42.857498, 0.0 ] } },
{ "type": "Feature", "properties": { "Name": "BOROK WYP", "description": "GPS 44.933334 44.516666", "timestamp": null, "begin": null, "end": null, "altitudeMode": null, "tessellate": -1, "extrude": 0, "visibility": -1, "drawOrder": null, "icon": null }, "geometry": { "type": "Point", "coordinates": [ 44.516666, 44.933334, 0.0 ] } },
{ "type": "Feature", "properties": { "Name": "BOROS WYP", "description": "GPS 64.366669 42.400002", "timestamp": null, "begin": null, "end": null, "altitudeMode": null, "tessellate": -1, "extrude": 0, "visibility": -1, "drawOrder": null, "icon": null }, "geometry": { "type": "Point", "coordinates": [ 42.400002, 64.366669, 0.0 ] } },
{ "type": "Feature", "properties": { "Name": "BOROV WYP", "description": "GPS 42.328335 23.625", "timestamp": null, "begin": null, "end": null, "altitudeMode": null, "tessellate": -1, "extrude": 0, "visibility": -1, "drawOrder": null, "icon": null }, "geometry": { "type": "Point", "coordinates": [ 23.625, 42.328335, 0.0 ] } },
{ "type": "Feature", "properties": { "Name": "BORVE WYP", "description": "GPS 55.450001 61.983334", "timestamp": null, "begin": null, "end": null, "altitudeMode": null, "tessellate": -1, "extrude": 0, "visibility": -1, "drawOrder": null, "icon": null }, "geometry": { "type": "Point", "coordinates": [ 61.983334, 55.450001, 0.0 ] } },
{ "type": "Feature", "properties": { "Name": "BOTVA WYP", "description": "GPS 53.650002 42.666668", "timestamp": null, "begin": null, "end": null, "altitudeMode": null, "tessellate": -1, "extrude": 0, "visibility": -1, "drawOrder": null, "icon": null }, "geometry": { "type": "Point", "coordinates": [ 42.666668, 53.650002, 0.0 ] } },
{ "type": "Feature", "properties": { "Name": "BRATY WYP", "description": "GPS 47.955002 31.598333", "timestamp": null, "begin": null, "end": null, "altitudeMode": null, "tessellate": -1, "extrude": 0, "visibility": -1, "drawOrder": null, "icon": null }, "geometry": { "type": "Point", "coordinates": [ 31.598333, 47.955002, 0.0 ] } },
{ "type": "Feature", "properties": { "Name": "BRDNK WYP", "description": "GPS 46.816666 36.75", "timestamp": null, "begin": null, "end": null, "altitudeMode": null, "tessellate": -1, "extrude": 0, "visibility": -1, "drawOrder": null, "icon": null }, "geometry": { "type": "Point", "coordinates": [ 36.75, 46.816666, 0.0 ] } },
{ "type": "Feature", "properties": { "Name": "BUBIN WYP", "description": "GPS 55.658333 53.465", "timestamp": null, "begin": null, "end": null, "altitudeMode": null, "tessellate": -1, "extrude": 0, "visibility": -1, "drawOrder": null, "icon": null }, "geometry": { "type": "Point", "coordinates": [ 53.465, 55.658333, 0.0 ] } },
{ "type": "Feature", "properties": { "Name": "BUCSA WYP", "description": "GPS 46.50341 26.367214", "timestamp": null, "begin": null, "end": null, "altitudeMode": null, "tessellate": -1, "extrude": 0, "visibility": -1, "drawOrder": null, "icon": null }, "geometry": { "type": "Point", "coordinates": [ 26.367214, 46.50341, 0.0 ] } },
{ "type": "Feature", "properties": { "Name": "BUDAN WYP", "description": "GPS 44.799999 44.150002", "timestamp": null, "begin": null, "end": null, "altitudeMode": null, "tessellate": -1, "extrude": 0, "visibility": -1, "drawOrder": null, "icon": null }, "geometry": { "type": "Point", "coordinates": [ 44.150002, 44.799999, 0.0 ] } },
{ "type": "Feature", "properties": { "Name": "BUDEX WYP", "description": "GPS 46.85696 21.577122", "timestamp": null, "begin": null, "end": null, "altitudeMode": null, "tessellate": -1, "extrude": 0, "visibility": -1, "drawOrder": null, "icon": null }, "geometry": { "type": "Point", "coordinates": [ 21.577122, 46.85696, 0.0 ] } },
{ "type": "Feature", "properties": { "Name": "BUDOP WYP", "description": "GPS 46.687374 21.496656", "timestamp": null, "begin": null, "end": null, "altitudeMode": null, "tessellate": -1, "extrude": 0, "visibility": -1, "drawOrder": null, "icon": null }, "geometry": { "type": "Point", "coordinates": [ 21.496656, 46.687374, 0.0 ] } },
{ "type": "Feature", "properties": { "Name": "BUGAK WYP", "description": "GPS 50.593334 29.911667", "timestamp": null, "begin": null, "end": null, "altitudeMode": null, "tessellate": -1, "extrude": 0, "visibility": -1, "drawOrder": null, "icon": null }, "geometry": { "type": "Point", "coordinates": [ 29.911667, 50.593334, 0.0 ] } },
{ "type": "Feature", "properties": { "Name": "BUGAZ WYP", "description": "GPS 46.066666 30.433332", "timestamp": null, "begin": null, "end": null, "altitudeMode": null, "tessellate": -1, "extrude": 0, "visibility": -1, "drawOrder": null, "icon": null }, "geometry": { "type": "Point", "coordinates": [ 30.433332, 46.066666, 0.0 ] } },
{ "type": "Feature", "properties": { "Name": "BUGEB WYP", "description": "GPS 41.192501 67.309723", "timestamp": null, "begin": null, "end": null, "altitudeMode": null, "tessellate": -1, "extrude": 0, "visibility": -1, "drawOrder": null, "icon": null }, "geometry": { "type": "Point", "coordinates": [ 67.309723, 41.192501, 0.0 ] } },
{ "type": "Feature", "properties": { "Name": "BUGOS WYP", "description": "GPS 46.099224 24.542206", "timestamp": null, "begin": null, "end": null, "altitudeMode": null, "tessellate": -1, "extrude": 0, "visibility": -1, "drawOrder": null, "icon": null }, "geometry": { "type": "Point", "coordinates": [ 24.542206, 46.099224, 0.0 ] } },
{ "type": "Feature", "properties": { "Name": "BUGUM WYP", "description": "GPS 53.0 22.941111", "timestamp": null, "begin": null, "end": null, "altitudeMode": null, "tessellate": -1, "extrude": 0, "visibility": -1, "drawOrder": null, "icon": null }, "geometry": { "type": "Point", "coordinates": [ 22.941111, 53.0, 0.0 ] } },
{ "type": "Feature", "properties": { "Name": "BUKAN WYP", "description": "GPS 46.533241 22.891129", "timestamp": null, "begin": null, "end": null, "altitudeMode": null, "tessellate": -1, "extrude": 0, "visibility": -1, "drawOrder": null, "icon": null }, "geometry": { "type": "Point", "coordinates": [ 22.891129, 46.533241, 0.0 ] } },
{ "type": "Feature", "properties": { "Name": "BUKEK WYP", "description": "GPS 38.605 55.518333", "timestamp": null, "begin": null, "end": null, "altitudeMode": null, "tessellate": -1, "extrude": 0, "visibility": -1, "drawOrder": null, "icon": null }, "geometry": { "type": "Point", "coordinates": [ 55.518333, 38.605, 0.0 ] } },
{ "type": "Feature", "properties": { "Name": "BUKEL WYP", "description": "GPS 45.077854 25.808342", "timestamp": null, "begin": null, "end": null, "altitudeMode": null, "tessellate": -1, "extrude": 0, "visibility": -1, "drawOrder": null, "icon": null }, "geometry": { "type": "Point", "coordinates": [ 25.808342, 45.077854, 0.0 ] } },
{ "type": "Feature", "properties": { "Name": "BUKET WYP", "description": "GPS 61.700001 56.916668", "timestamp": null, "begin": null, "end": null, "altitudeMode": null, "tessellate": -1, "extrude": 0, "visibility": -1, "drawOrder": null, "icon": null }, "geometry": { "type": "Point", "coordinates": [ 56.916668, 61.700001, 0.0 ] } },
{ "type": "Feature", "properties": { "Name": "BUKLA WYP", "description": "GPS 41.961666 47.615002", "timestamp": null, "begin": null, "end": null, "altitudeMode": null, "tessellate": -1, "extrude": 0, "visibility": -1, "drawOrder": null, "icon": null }, "geometry": { "type": "Point", "coordinates": [ 47.615002, 41.961666, 0.0 ] } },
{ "type": "Feature", "properties": { "Name": "BUKLI WYP", "description": "GPS 45.416668 34.599998", "timestamp": null, "begin": null, "end": null, "altitudeMode": null, "tessellate": -1, "extrude": 0, "visibility": -1, "drawOrder": null, "icon": null }, "geometry": { "type": "Point", "coordinates": [ 34.599998, 45.416668, 0.0 ] } },
{ "type": "Feature", "properties": { "Name": "BUKOV WYP", "description": "GPS 47.951668 25.958334", "timestamp": null, "begin": null, "end": null, "altitudeMode": null, "tessellate": -1, "extrude": 0, "visibility": -1, "drawOrder": null, "icon": null }, "geometry": { "type": "Point", "coordinates": [ 25.958334, 47.951668, 0.0 ] } },
{ "type": "Feature", "properties": { "Name": "BUKUR WYP", "description": "GPS 45.794708 23.144224", "timestamp": null, "begin": null, "end": null, "altitudeMode": null, "tessellate": -1, "extrude": 0, "visibility": -1, "drawOrder": null, "icon": null }, "geometry": { "type": "Point", "coordinates": [ 23.144224, 45.794708, 0.0 ] } },
{ "type": "Feature", "properties": { "Name": "BULAK WYP", "description": "GPS 46.950001 44.333332", "timestamp": null, "begin": null, "end": null, "altitudeMode": null, "tessellate": -1, "extrude": 0, "visibility": -1, "drawOrder": null, "icon": null }, "geometry": { "type": "Point", "coordinates": [ 44.333332, 46.950001, 0.0 ] } },
{ "type": "Feature", "properties": { "Name": "BULEN WYP", "description": "GPS 43.75 25.816668", "timestamp": null, "begin": null, "end": null, "altitudeMode": null, "tessellate": -1, "extrude": 0, "visibility": -1, "drawOrder": null, "icon": null }, "geometry": { "type": "Point", "coordinates": [ 25.816668, 43.75, 0.0 ] } },
{ "type": "Feature", "properties": { "Name": "BULEP WYP", "description": "GPS 52.770832 22.417778", "timestamp": null, "begin": null, "end": null, "altitudeMode": null, "tessellate": -1, "extrude": 0, "visibility": -1, "drawOrder": null, "icon": null }, "geometry": { "type": "Point", "coordinates": [ 22.417778, 52.770832, 0.0 ] } },
{ "type": "Feature", "properties": { "Name": "BULIG WYP", "description": "GPS 47.966667 36.216667", "timestamp": null, "begin": null, "end": null, "altitudeMode": null, "tessellate": -1, "extrude": 0, "visibility": -1, "drawOrder": null, "icon": null }, "geometry": { "type": "Point", "coordinates": [ 36.216667, 47.966667, 0.0 ] } },
{ "type": "Feature", "properties": { "Name": "BULOG WYP", "description": "GPS 50.148335 66.010002", "timestamp": null, "begin": null, "end": null, "altitudeMode": null, "tessellate": -1, "extrude": 0, "visibility": -1, "drawOrder": null, "icon": null }, "geometry": { "type": "Point", "coordinates": [ 66.010002, 50.148335, 0.0 ] } },
{ "type": "Feature", "properties": { "Name": "BULUD WYP", "description": "GPS 40.698334 50.248333", "timestamp": null, "begin": null, "end": null, "altitudeMode": null, "tessellate": -1, "extrude": 0, "visibility": -1, "drawOrder": null, "icon": null }, "geometry": { "type": "Point", "coordinates": [ 50.248333, 40.698334, 0.0 ] } },
{ "type": "Feature", "properties": { "Name": "BULUK WYP", "description": "GPS 65.349998 40.316666", "timestamp": null, "begin": null, "end": null, "altitudeMode": null, "tessellate": -1, "extrude": 0, "visibility": -1, "drawOrder": null, "icon": null }, "geometry": { "type": "Point", "coordinates": [ 40.316666, 65.349998, 0.0 ] } },
{ "type": "Feature", "properties": { "Name": "BUMAR WYP", "description": "GPS 42.028332 48.921665", "timestamp": null, "begin": null, "end": null, "altitudeMode": null, "tessellate": -1, "extrude": 0, "visibility": -1, "drawOrder": null, "icon": null }, "geometry": { "type": "Point", "coordinates": [ 48.921665, 42.028332, 0.0 ] } },
{ "type": "Feature", "properties": { "Name": "BUNAK WYP", "description": "GPS 54.916668 84.349998", "timestamp": null, "begin": null, "end": null, "altitudeMode": null, "tessellate": -1, "extrude": 0, "visibility": -1, "drawOrder": null, "icon": null }, "geometry": { "type": "Point", "coordinates": [ 84.349998, 54.916668, 0.0 ] } },
{ "type": "Feature", "properties": { "Name": "BUNIS WYP", "description": "GPS 40.788334 50.035", "timestamp": null, "begin": null, "end": null, "altitudeMode": null, "tessellate": -1, "extrude": 0, "visibility": -1, "drawOrder": null, "icon": null }, "geometry": { "type": "Point", "coordinates": [ 50.035, 40.788334, 0.0 ] } },
{ "type": "Feature", "properties": { "Name": "BUPAN WYP", "description": "GPS 47.782276 18.708628", "timestamp": null, "begin": null, "end": null, "altitudeMode": null, "tessellate": -1, "extrude": 0, "visibility": -1, "drawOrder": null, "icon": null }, "geometry": { "type": "Point", "coordinates": [ 18.708628, 47.782276, 0.0 ] } },
{ "type": "Feature", "properties": { "Name": "BURDA WYP", "description": "GPS 46.814999 36.758335", "timestamp": null, "begin": null, "end": null, "altitudeMode": null, "tessellate": -1, "extrude": 0, "visibility": -1, "drawOrder": null, "icon": null }, "geometry": { "type": "Point", "coordinates": [ 36.758335, 46.814999, 0.0 ] } },
{ "type": "Feature", "properties": { "Name": "BURID WYP", "description": "GPS 47.042778 81.014168", "timestamp": null, "begin": null, "end": null, "altitudeMode": null, "tessellate": -1, "extrude": 0, "visibility": -1, "drawOrder": null, "icon": null }, "geometry": { "type": "Point", "coordinates": [ 81.014168, 47.042778, 0.0 ] } },
{ "type": "Feature", "properties": { "Name": "BURKA WYP", "description": "GPS 62.833332 59.733334", "timestamp": null, "begin": null, "end": null, "altitudeMode": null, "tessellate": -1, "extrude": 0, "visibility": -1, "drawOrder": null, "icon": null }, "geometry": { "type": "Point", "coordinates": [ 59.733334, 62.833332, 0.0 ] } },
{ "type": "Feature", "properties": { "Name": "BUROT WYP", "description": "GPS 38.5 59.0", "timestamp": null, "begin": null, "end": null, "altitudeMode": null, "tessellate": -1, "extrude": 0, "visibility": -1, "drawOrder": null, "icon": null }, "geometry": { "type": "Point", "coordinates": [ 59.0, 38.5, 0.0 ] } },
{ "type": "Feature", "properties": { "Name": "BUSAR WYP", "description": "GPS 47.156666 79.584442", "timestamp": null, "begin": null, "end": null, "altitudeMode": null, "tessellate": -1, "extrude": 0, "visibility": -1, "drawOrder": null, "icon": null }, "geometry": { "type": "Point", "coordinates": [ 79.584442, 47.156666, 0.0 ] } },
{ "type": "Feature", "properties": { "Name": "BUTRA WYP", "description": "GPS 39.349998 67.48333", "timestamp": null, "begin": null, "end": null, "altitudeMode": null, "tessellate": -1, "extrude": 0, "visibility": -1, "drawOrder": null, "icon": null }, "geometry": { "type": "Point", "coordinates": [ 67.48333, 39.349998, 0.0 ] } },
{ "type": "Feature", "properties": { "Name": "BUTRI WYP", "description": "GPS 50.783333 40.599998", "timestamp": null, "begin": null, "end": null, "altitudeMode": null, "tessellate": -1, "extrude": 0, "visibility": -1, "drawOrder": null, "icon": null }, "geometry": { "type": "Point", "coordinates": [ 40.599998, 50.783333, 0.0 ] } },
{ "type": "Feature", "properties": { "Name": "BUZCI WYP", "description": "GPS 45.183334 51.283333", "timestamp": null, "begin": null, "end": null, "altitudeMode": null, "tessellate": -1, "extrude": 0, "visibility": -1, "drawOrder": null, "icon": null }, "geometry": { "type": "Point", "coordinates": [ 51.283333, 45.183334, 0.0 ] } },
{ "type": "Feature", "properties": { "Name": "CE84 WYP", "description": "GPS 57.251667 86.463333", "timestamp": null, "begin": null, "end": null, "altitudeMode": null, "tessellate": -1, "extrude": 0, "visibility": -1, "drawOrder": null, "icon": null }, "geometry": { "type": "Point", "coordinates": [ 86.463333, 57.251667, 0.0 ] } },
{ "type": "Feature", "properties": { "Name": "CENTY WYP", "description": "GPS 48.693333 26.606667", "timestamp": null, "begin": null, "end": null, "altitudeMode": null, "tessellate": -1, "extrude": 0, "visibility": -1, "drawOrder": null, "icon": null }, "geometry": { "type": "Point", "coordinates": [ 26.606667, 48.693333, 0.0 ] } },
{ "type": "Feature", "properties": { "Name": "CERIV WYP", "description": "GPS 51.403332 31.165556", "timestamp": null, "begin": null, "end": null, "altitudeMode": null, "tessellate": -1, "extrude": 0, "visibility": -1, "drawOrder": null, "icon": null }, "geometry": { "type": "Point", "coordinates": [ 31.165556, 51.403332, 0.0 ] } },
{ "type": "Feature", "properties": { "Name": "CERNO WYP", "description": "GPS 49.254173 13.071675", "timestamp": null, "begin": null, "end": null, "altitudeMode": null, "tessellate": -1, "extrude": 0, "visibility": -1, "drawOrder": null, "icon": null }, "geometry": { "type": "Point", "coordinates": [ 13.071675, 49.254173, 0.0 ] } },
{ "type": "Feature", "properties": { "Name": "CETUL WYP", "description": "GPS 44.697521 28.627031", "timestamp": null, "begin": null, "end": null, "altitudeMode": null, "tessellate": -1, "extrude": 0, "visibility": -1, "drawOrder": null, "icon": null }, "geometry": { "type": "Point", "coordinates": [ 28.627031, 44.697521, 0.0 ] } },
{ "type": "Feature", "properties": { "Name": "CHARD WYP", "description": "GPS 39.258335 63.823334", "timestamp": null, "begin": null, "end": null, "altitudeMode": null, "tessellate": -1, "extrude": 0, "visibility": -1, "drawOrder": null, "icon": null }, "geometry": { "type": "Point", "coordinates": [ 63.823334, 39.258335, 0.0 ] } },
{ "type": "Feature", "properties": { "Name": "CONUS WYP", "description": "GPS 48.533333 45.0", "timestamp": null, "begin": null, "end": null, "altitudeMode": null, "tessellate": -1, "extrude": 0, "visibility": -1, "drawOrder": null, "icon": null }, "geometry": { "type": "Point", "coordinates": [ 45.0, 48.533333, 0.0 ] } },
{ "type": "Feature", "properties": { "Name": "COPSA WYP", "description": "GPS 46.131191 24.232658", "timestamp": null, "begin": null, "end": null, "altitudeMode": null, "tessellate": -1, "extrude": 0, "visibility": -1, "drawOrder": null, "icon": null }, "geometry": { "type": "Point", "coordinates": [ 24.232658, 46.131191, 0.0 ] } },
{ "type": "Feature", "properties": { "Name": "COSTA WYP", "description": "GPS 44.603333 26.450001", "timestamp": null, "begin": null, "end": null, "altitudeMode": null, "tessellate": -1, "extrude": 0, "visibility": -1, "drawOrder": null, "icon": null }, "geometry": { "type": "Point", "coordinates": [ 26.450001, 44.603333, 0.0 ] } },
{ "type": "Feature", "properties": { "Name": "CRISA WYP", "description": "GPS 46.45755 21.373741", "timestamp": null, "begin": null, "end": null, "altitudeMode": null, "tessellate": -1, "extrude": 0, "visibility": -1, "drawOrder": null, "icon": null }, "geometry": { "type": "Point", "coordinates": [ 21.373741, 46.45755, 0.0 ] } },
{ "type": "Feature", "properties": { "Name": "CROSA WYP", "description": "GPS 45.617371 21.796637", "timestamp": null, "begin": null, "end": null, "altitudeMode": null, "tessellate": -1, "extrude": 0, "visibility": -1, "drawOrder": null, "icon": null }, "geometry": { "type": "Point", "coordinates": [ 21.796637, 45.617371, 0.0 ] } },
{ "type": "Feature", "properties": { "Name": "CUHUV WYP", "description": "GPS 50.286667 36.939999", "timestamp": null, "begin": null, "end": null, "altitudeMode": null, "tessellate": -1, "extrude": 0, "visibility": -1, "drawOrder": null, "icon": null }, "geometry": { "type": "Point", "coordinates": [ 36.939999, 50.286667, 0.0 ] } },
{ "type": "Feature", "properties": { "Name": "D130Q WYP", "description": "GPS 44.721668 26.273333", "timestamp": null, "begin": null, "end": null, "altitudeMode": null, "tessellate": -1, "extrude": 0, "visibility": -1, "drawOrder": null, "icon": null }, "geometry": { "type": "Point", "coordinates": [ 26.273333, 44.721668, 0.0 ] } },
{ "type": "Feature", "properties": { "Name": "D130U WYP", "description": "GPS 44.678333 26.338333", "timestamp": null, "begin": null, "end": null, "altitudeMode": null, "tessellate": -1, "extrude": 0, "visibility": -1, "drawOrder": null, "icon": null }, "geometry": { "type": "Point", "coordinates": [ 26.338333, 44.678333, 0.0 ] } },
{ "type": "Feature", "properties": { "Name": "D165C WYP", "description": "GPS 50.533421 14.516569", "timestamp": null, "begin": null, "end": null, "altitudeMode": null, "tessellate": -1, "extrude": 0, "visibility": -1, "drawOrder": null, "icon": null }, "geometry": { "type": "Point", "coordinates": [ 14.516569, 50.533421, 0.0 ] } },
{ "type": "Feature", "properties": { "Name": "D199R WYP", "description": "GPS 44.634998 25.82", "timestamp": null, "begin": null, "end": null, "altitudeMode": null, "tessellate": -1, "extrude": 0, "visibility": -1, "drawOrder": null, "icon": null }, "geometry": { "type": "Point", "coordinates": [ 25.82, 44.634998, 0.0 ] } },
{ "type": "Feature", "properties": { "Name": "DABER WYP", "description": "GPS 55.049999 46.133335", "timestamp": null, "begin": null, "end": null, "altitudeMode": null, "tessellate": -1, "extrude": 0, "visibility": -1, "drawOrder": null, "icon": null }, "geometry": { "type": "Point", "coordinates": [ 46.133335, 55.049999, 0.0 ] } },
{ "type": "Feature", "properties": { "Name": "DAGOT WYP", "description": "GPS 52.833332 58.049999", "timestamp": null, "begin": null, "end": null, "altitudeMode": null, "tessellate": -1, "extrude": 0, "visibility": -1, "drawOrder": null, "icon": null }, "geometry": { "type": "Point", "coordinates": [ 58.049999, 52.833332, 0.0 ] } },
{ "type": "Feature", "properties": { "Name": "DAKAR WYP", "description": "GPS 62.166668 73.933334", "timestamp": null, "begin": null, "end": null, "altitudeMode": null, "tessellate": -1, "extrude": 0, "visibility": -1, "drawOrder": null, "icon": null }, "geometry": { "type": "Point", "coordinates": [ 73.933334, 62.166668, 0.0 ] } },
{ "type": "Feature", "properties": { "Name": "DAKIN WYP", "description": "GPS 54.158333 72.404999", "timestamp": null, "begin": null, "end": null, "altitudeMode": null, "tessellate": -1, "extrude": 0, "visibility": -1, "drawOrder": null, "icon": null }, "geometry": { "type": "Point", "coordinates": [ 72.404999, 54.158333, 0.0 ] } },
{ "type": "Feature", "properties": { "Name": "DAKLI WYP", "description": "GPS 40.266666 66.366669", "timestamp": null, "begin": null, "end": null, "altitudeMode": null, "tessellate": -1, "extrude": 0, "visibility": -1, "drawOrder": null, "icon": null }, "geometry": { "type": "Point", "coordinates": [ 66.366669, 40.266666, 0.0 ] } },
{ "type": "Feature", "properties": { "Name": "DAKLO WYP", "description": "GPS 55.616665 38.633335", "timestamp": null, "begin": null, "end": null, "altitudeMode": null, "tessellate": -1, "extrude": 0, "visibility": -1, "drawOrder": null, "icon": null }, "geometry": { "type": "Point", "coordinates": [ 38.633335, 55.616665, 0.0 ] } },
{ "type": "Feature", "properties": { "Name": "DALAR WYP", "description": "GPS 40.841667 46.066666", "timestamp": null, "begin": null, "end": null, "altitudeMode": null, "tessellate": -1, "extrude": 0, "visibility": -1, "drawOrder": null, "icon": null }, "geometry": { "type": "Point", "coordinates": [ 46.066666, 40.841667, 0.0 ] } },
{ "type": "Feature", "properties": { "Name": "DALGA WYP", "description": "GPS 40.816666 48.950001", "timestamp": null, "begin": null, "end": null, "altitudeMode": null, "tessellate": -1, "extrude": 0, "visibility": -1, "drawOrder": null, "icon": null }, "geometry": { "type": "Point", "coordinates": [ 48.950001, 40.816666, 0.0 ] } },
{ "type": "Feature", "properties": { "Name": "DANAT WYP", "description": "GPS 64.900002 68.0", "timestamp": null, "begin": null, "end": null, "altitudeMode": null, "tessellate": -1, "extrude": 0, "visibility": -1, "drawOrder": null, "icon": null }, "geometry": { "type": "Point", "coordinates": [ 68.0, 64.900002, 0.0 ] } },
{ "type": "Feature", "properties": { "Name": "DANDI WYP", "description": "GPS 54.75 49.950001", "timestamp": null, "begin": null, "end": null, "altitudeMode": null, "tessellate": -1, "extrude": 0, "visibility": -1, "drawOrder": null, "icon": null }, "geometry": { "type": "Point", "coordinates": [ 49.950001, 54.75, 0.0 ] } },
{ "type": "Feature", "properties": { "Name": "DANKA WYP", "description": "GPS 48.950001 35.066666", "timestamp": null, "begin": null, "end": null, "altitudeMode": null, "tessellate": -1, "extrude": 0, "visibility": -1, "drawOrder": null, "icon": null }, "geometry": { "type": "Point", "coordinates": [ 35.066666, 48.950001, 0.0 ] } },
{ "type": "Feature", "properties": { "Name": "DANUL WYP", "description": "GPS 44.906696 28.456266", "timestamp": null, "begin": null, "end": null, "altitudeMode": null, "tessellate": -1, "extrude": 0, "visibility": -1, "drawOrder": null, "icon": null }, "geometry": { "type": "Point", "coordinates": [ 28.456266, 44.906696, 0.0 ] } },
{ "type": "Feature", "properties": { "Name": "DARAN WYP", "description": "GPS 38.201668 107.721664", "timestamp": null, "begin": null, "end": null, "altitudeMode": null, "tessellate": -1, "extrude": 0, "visibility": -1, "drawOrder": null, "icon": null }, "geometry": { "type": "Point", "coordinates": [ 107.721664, 38.201668, 0.0 ] } },
{ "type": "Feature", "properties": { "Name": "DAREK WYP", "description": "GPS 60.66 29.75", "timestamp": null, "begin": null, "end": null, "altitudeMode": null, "tessellate": -1, "extrude": 0, "visibility": -1, "drawOrder": null, "icon": null }, "geometry": { "type": "Point", "coordinates": [ 29.75, 60.66, 0.0 ] } },
{ "type": "Feature", "properties": { "Name": "DARMA WYP", "description": "GPS 39.483334 68.133331", "timestamp": null, "begin": null, "end": null, "altitudeMode": null, "tessellate": -1, "extrude": 0, "visibility": -1, "drawOrder": null, "icon": null }, "geometry": { "type": "Point", "coordinates": [ 68.133331, 39.483334, 0.0 ] } },
{ "type": "Feature", "properties": { "Name": "DARNO WYP", "description": "GPS 50.356667 98.294998", "timestamp": null, "begin": null, "end": null, "altitudeMode": null, "tessellate": -1, "extrude": 0, "visibility": -1, "drawOrder": null, "icon": null }, "geometry": { "type": "Point", "coordinates": [ 98.294998, 50.356667, 0.0 ] } },
{ "type": "Feature", "properties": { "Name": "DARVA WYP", "description": "GPS 41.306667 60.428333", "timestamp": null, "begin": null, "end": null, "altitudeMode": null, "tessellate": -1, "extrude": 0, "visibility": -1, "drawOrder": null, "icon": null }, "geometry": { "type": "Point", "coordinates": [ 60.428333, 41.306667, 0.0 ] } },
{ "type": "Feature", "properties": { "Name": "DEBAT WYP", "description": "GPS 52.463333 88.830002", "timestamp": null, "begin": null, "end": null, "altitudeMode": null, "tessellate": -1, "extrude": 0, "visibility": -1, "drawOrder": null, "icon": null }, "geometry": { "type": "Point", "coordinates": [ 88.830002, 52.463333, 0.0 ] } },
{ "type": "Feature", "properties": { "Name": "DEBRI WYP", "description": "GPS 55.133335 61.716667", "timestamp": null, "begin": null, "end": null, "altitudeMode": null, "tessellate": -1, "extrude": 0, "visibility": -1, "drawOrder": null, "icon": null }, "geometry": { "type": "Point", "coordinates": [ 61.716667, 55.133335, 0.0 ] } },
{ "type": "Feature", "properties": { "Name": "DECAN WYP", "description": "GPS 46.867558 23.386444", "timestamp": null, "begin": null, "end": null, "altitudeMode": null, "tessellate": -1, "extrude": 0, "visibility": -1, "drawOrder": null, "icon": null }, "geometry": { "type": "Point", "coordinates": [ 23.386444, 46.867558, 0.0 ] } },
{ "type": "Feature", "properties": { "Name": "DEDOK WYP", "description": "GPS 54.035 29.303333", "timestamp": null, "begin": null, "end": null, "altitudeMode": null, "tessellate": -1, "extrude": 0, "visibility": -1, "drawOrder": null, "icon": null }, "geometry": { "type": "Point", "coordinates": [ 29.303333, 54.035, 0.0 ] } },
{ "type": "Feature", "properties": { "Name": "DEDOR WYP", "description": "GPS 46.271835 22.275755", "timestamp": null, "begin": null, "end": null, "altitudeMode": null, "tessellate": -1, "extrude": 0, "visibility": -1, "drawOrder": null, "icon": null }, "geometry": { "type": "Point", "coordinates": [ 22.275755, 46.271835, 0.0 ] } },
{ "type": "Feature", "properties": { "Name": "DEGAT WYP", "description": "GPS 43.634975 25.457445", "timestamp": null, "begin": null, "end": null, "altitudeMode": null, "tessellate": -1, "extrude": 0, "visibility": -1, "drawOrder": null, "icon": null }, "geometry": { "type": "Point", "coordinates": [ 25.457445, 43.634975, 0.0 ] } },
{ "type": "Feature", "properties": { "Name": "DEGET WYP", "description": "GPS 46.493546 21.267242", "timestamp": null, "begin": null, "end": null, "altitudeMode": null, "tessellate": -1, "extrude": 0, "visibility": -1, "drawOrder": null, "icon": null }, "geometry": { "type": "Point", "coordinates": [ 21.267242, 46.493546, 0.0 ] } },
{ "type": "Feature", "properties": { "Name": "DEKAD WYP", "description": "GPS 48.950001 33.366665", "timestamp": null, "begin": null, "end": null, "altitudeMode": null, "tessellate": -1, "extrude": 0, "visibility": -1, "drawOrder": null, "icon": null }, "geometry": { "type": "Point", "coordinates": [ 33.366665, 48.950001, 0.0 ] } },
{ "type": "Feature", "properties": { "Name": "DEKAM WYP", "description": "GPS 44.906261 23.439703", "timestamp": null, "begin": null, "end": null, "altitudeMode": null, "tessellate": -1, "extrude": 0, "visibility": -1, "drawOrder": null, "icon": null }, "geometry": { "type": "Point", "coordinates": [ 23.439703, 44.906261, 0.0 ] } },
{ "type": "Feature", "properties": { "Name": "DEKUR WYP", "description": "GPS 42.379723 51.875278", "timestamp": null, "begin": null, "end": null, "altitudeMode": null, "tessellate": -1, "extrude": 0, "visibility": -1, "drawOrder": null, "icon": null }, "geometry": { "type": "Point", "coordinates": [ 51.875278, 42.379723, 0.0 ] } },
{ "type": "Feature", "properties": { "Name": "DELAK WYP", "description": "GPS 44.83609 26.500319", "timestamp": null, "begin": null, "end": null, "altitudeMode": null, "tessellate": -1, "extrude": 0, "visibility": -1, "drawOrder": null, "icon": null }, "geometry": { "type": "Point", "coordinates": [ 26.500319, 44.83609, 0.0 ] } },
{ "type": "Feature", "properties": { "Name": "DEMAN WYP", "description": "GPS 52.441666 51.873333", "timestamp": null, "begin": null, "end": null, "altitudeMode": null, "tessellate": -1, "extrude": 0, "visibility": -1, "drawOrder": null, "icon": null }, "geometry": { "type": "Point", "coordinates": [ 51.873333, 52.441666, 0.0 ] } },
{ "type": "Feature", "properties": { "Name": "DEMAS WYP", "description": "GPS 42.792221 71.335556", "timestamp": null, "begin": null, "end": null, "altitudeMode": null, "tessellate": -1, "extrude": 0, "visibility": -1, "drawOrder": null, "icon": null }, "geometry": { "type": "Point", "coordinates": [ 71.335556, 42.792221, 0.0 ] } },
{ "type": "Feature", "properties": { "Name": "DEMON WYP", "description": "GPS 42.416668 44.299999", "timestamp": null, "begin": null, "end": null, "altitudeMode": null, "tessellate": -1, "extrude": 0, "visibility": -1, "drawOrder": null, "icon": null }, "geometry": { "type": "Point", "coordinates": [ 44.299999, 42.416668, 0.0 ] } },
{ "type": "Feature", "properties": { "Name": "DENAK WYP", "description": "GPS 46.145 30.891666", "timestamp": null, "begin": null, "end": null, "altitudeMode": null, "tessellate": -1, "extrude": 0, "visibility": -1, "drawOrder": null, "icon": null }, "geometry": { "type": "Point", "coordinates": [ 30.891666, 46.145, 0.0 ] } },
{ "type": "Feature", "properties": { "Name": "DENUS WYP", "description": "GPS 43.286667 36.389999", "timestamp": null, "begin": null, "end": null, "altitudeMode": null, "tessellate": -1, "extrude": 0, "visibility": -1, "drawOrder": null, "icon": null }, "geometry": { "type": "Point", "coordinates": [ 36.389999, 43.286667, 0.0 ] } },
{ "type": "Feature", "properties": { "Name": "DEPIR WYP", "description": "GPS 54.036388 66.40139", "timestamp": null, "begin": null, "end": null, "altitudeMode": null, "tessellate": -1, "extrude": 0, "visibility": -1, "drawOrder": null, "icon": null }, "geometry": { "type": "Point", "coordinates": [ 66.40139, 54.036388, 0.0 ] } },
{ "type": "Feature", "properties": { "Name": "DERKA WYP", "description": "GPS 38.531666 65.106667", "timestamp": null, "begin": null, "end": null, "altitudeMode": null, "tessellate": -1, "extrude": 0, "visibility": -1, "drawOrder": null, "icon": null }, "geometry": { "type": "Point", "coordinates": [ 65.106667, 38.531666, 0.0 ] } },
{ "type": "Feature", "properties": { "Name": "DESER WYP", "description": "GPS 44.917221 75.51667", "timestamp": null, "begin": null, "end": null, "altitudeMode": null, "tessellate": -1, "extrude": 0, "visibility": -1, "drawOrder": null, "icon": null }, "geometry": { "type": "Point", "coordinates": [ 75.51667, 44.917221, 0.0 ] } },
{ "type": "Feature", "properties": { "Name": "DESNA WYP", "description": "GPS 52.283333 107.25", "timestamp": null, "begin": null, "end": null, "altitudeMode": null, "tessellate": -1, "extrude": 0, "visibility": -1, "drawOrder": null, "icon": null }, "geometry": { "type": "Point", "coordinates": [ 107.25, 52.283333, 0.0 ] } },
{ "type": "Feature", "properties": { "Name": "DESOK WYP", "description": "GPS 44.274445 77.921112", "timestamp": null, "begin": null, "end": null, "altitudeMode": null, "tessellate": -1, "extrude": 0, "visibility": -1, "drawOrder": null, "icon": null }, "geometry": { "type": "Point", "coordinates": [ 77.921112, 44.274445, 0.0 ] } },
{ "type": "Feature", "properties": { "Name": "DETAK WYP", "description": "GPS 43.797222 76.847778", "timestamp": null, "begin": null, "end": null, "altitudeMode": null, "tessellate": -1, "extrude": 0, "visibility": -1, "drawOrder": null, "icon": null }, "geometry": { "type": "Point", "coordinates": [ 76.847778, 43.797222, 0.0 ] } },
{ "type": "Feature", "properties": { "Name": "DEVIN WYP", "description": "GPS 41.708332 24.355", "timestamp": null, "begin": null, "end": null, "altitudeMode": null, "tessellate": -1, "extrude": 0, "visibility": -1, "drawOrder": null, "icon": null }, "geometry": { "type": "Point", "coordinates": [ 24.355, 41.708332, 0.0 ] } },
{ "type": "Feature", "properties": { "Name": "DHANI WYP", "description": "GPS 45.584999 34.233334", "timestamp": null, "begin": null, "end": null, "altitudeMode": null, "tessellate": -1, "extrude": 0, "visibility": -1, "drawOrder": null, "icon": null }, "geometry": { "type": "Point", "coordinates": [ 34.233334, 45.584999, 0.0 ] } },
{ "type": "Feature", "properties": { "Name": "DIBAT WYP", "description": "GPS 43.110001 39.518333", "timestamp": null, "begin": null, "end": null, "altitudeMode": null, "tessellate": -1, "extrude": 0, "visibility": -1, "drawOrder": null, "icon": null }, "geometry": { "type": "Point", "coordinates": [ 39.518333, 43.110001, 0.0 ] } },
{ "type": "Feature", "properties": { "Name": "DIBED WYP", "description": "GPS 49.888332 23.058332", "timestamp": null, "begin": null, "end": null, "altitudeMode": null, "tessellate": -1, "extrude": 0, "visibility": -1, "drawOrder": null, "icon": null }, "geometry": { "type": "Point", "coordinates": [ 23.058332, 49.888332, 0.0 ] } },
{ "type": "Feature", "properties": { "Name": "DIBRI WYP", "description": "GPS 52.683056 18.606667", "timestamp": null, "begin": null, "end": null, "altitudeMode": null, "tessellate": -1, "extrude": 0, "visibility": -1, "drawOrder": null, "icon": null }, "geometry": { "type": "Point", "coordinates": [ 18.606667, 52.683056, 0.0 ] } },
{ "type": "Feature", "properties": { "Name": "DIBRO WYP", "description": "GPS 51.700001 26.116667", "timestamp": null, "begin": null, "end": null, "altitudeMode": null, "tessellate": -1, "extrude": 0, "visibility": -1, "drawOrder": null, "icon": null }, "geometry": { "type": "Point", "coordinates": [ 26.116667, 51.700001, 0.0 ] } },
{ "type": "Feature", "properties": { "Name": "DIGAM WYP", "description": "GPS 45.258335 31.111666", "timestamp": null, "begin": null, "end": null, "altitudeMode": null, "tessellate": -1, "extrude": 0, "visibility": -1, "drawOrder": null, "icon": null }, "geometry": { "type": "Point", "coordinates": [ 31.111666, 45.258335, 0.0 ] } },
{ "type": "Feature", "properties": { "Name": "DIGIT WYP", "description": "GPS 50.396111 75.154999", "timestamp": null, "begin": null, "end": null, "altitudeMode": null, "tessellate": -1, "extrude": 0, "visibility": -1, "drawOrder": null, "icon": null }, "geometry": { "type": "Point", "coordinates": [ 75.154999, 50.396111, 0.0 ] } },
{ "type": "Feature", "properties": { "Name": "DIKAR WYP", "description": "GPS 60.983334 74.916664", "timestamp": null, "begin": null, "end": null, "altitudeMode": null, "tessellate": -1, "extrude": 0, "visibility": -1, "drawOrder": null, "icon": null }, "geometry": { "type": "Point", "coordinates": [ 74.916664, 60.983334, 0.0 ] } },
{ "type": "Feature", "properties": { "Name": "DILNA WYP", "description": "GPS 44.248333 64.818336", "timestamp": null, "begin": null, "end": null, "altitudeMode": null, "tessellate": -1, "extrude": 0, "visibility": -1, "drawOrder": null, "icon": null }, "geometry": { "type": "Point", "coordinates": [ 64.818336, 44.248333, 0.0 ] } },
{ "type": "Feature", "properties": { "Name": "DILON WYP", "description": "GPS 40.333332 50.616665", "timestamp": null, "begin": null, "end": null, "altitudeMode": null, "tessellate": -1, "extrude": 0, "visibility": -1, "drawOrder": null, "icon": null }, "geometry": { "type": "Point", "coordinates": [ 50.616665, 40.333332, 0.0 ] } },
{ "type": "Feature", "properties": { "Name": "DILOR WYP", "description": "GPS 48.134998 30.318333", "timestamp": null, "begin": null, "end": null, "altitudeMode": null, "tessellate": -1, "extrude": 0, "visibility": -1, "drawOrder": null, "icon": null }, "geometry": { "type": "Point", "coordinates": [ 30.318333, 48.134998, 0.0 ] } },
{ "type": "Feature", "properties": { "Name": "DIMLO WYP", "description": "GPS 46.683491 16.422722", "timestamp": null, "begin": null, "end": null, "altitudeMode": null, "tessellate": -1, "extrude": 0, "visibility": -1, "drawOrder": null, "icon": null }, "geometry": { "type": "Point", "coordinates": [ 16.422722, 46.683491, 0.0 ] } },
{ "type": "Feature", "properties": { "Name": "DIMUT WYP", "description": "GPS 49.310276 75.098892", "timestamp": null, "begin": null, "end": null, "altitudeMode": null, "tessellate": -1, "extrude": 0, "visibility": -1, "drawOrder": null, "icon": null }, "geometry": { "type": "Point", "coordinates": [ 75.098892, 49.310276, 0.0 ] } },
{ "type": "Feature", "properties": { "Name": "DINAR WYP", "description": "GPS 39.25 70.466667", "timestamp": null, "begin": null, "end": null, "altitudeMode": null, "tessellate": -1, "extrude": 0, "visibility": -1, "drawOrder": null, "icon": null }, "geometry": { "type": "Point", "coordinates": [ 70.466667, 39.25, 0.0 ] } },
{ "type": "Feature", "properties": { "Name": "DINEL WYP", "description": "GPS 46.004105 22.154417", "timestamp": null, "begin": null, "end": null, "altitudeMode": null, "tessellate": -1, "extrude": 0, "visibility": -1, "drawOrder": null, "icon": null }, "geometry": { "type": "Point", "coordinates": [ 22.154417, 46.004105, 0.0 ] } },
{ "type": "Feature", "properties": { "Name": "DINKA WYP", "description": "GPS 48.236668 29.528334", "timestamp": null, "begin": null, "end": null, "altitudeMode": null, "tessellate": -1, "extrude": 0, "visibility": -1, "drawOrder": null, "icon": null }, "geometry": { "type": "Point", "coordinates": [ 29.528334, 48.236668, 0.0 ] } },
{ "type": "Feature", "properties": { "Name": "DINRO WYP", "description": "GPS 43.700001 28.808332", "timestamp": null, "begin": null, "end": null, "altitudeMode": null, "tessellate": -1, "extrude": 0, "visibility": -1, "drawOrder": null, "icon": null }, "geometry": { "type": "Point", "coordinates": [ 28.808332, 43.700001, 0.0 ] } },
{ "type": "Feature", "properties": { "Name": "DINVO WYP", "description": "GPS 44.2225 76.220558", "timestamp": null, "begin": null, "end": null, "altitudeMode": null, "tessellate": -1, "extrude": 0, "visibility": -1, "drawOrder": null, "icon": null }, "geometry": { "type": "Point", "coordinates": [ 76.220558, 44.2225, 0.0 ] } },
{ "type": "Feature", "properties": { "Name": "DIRAL WYP", "description": "GPS 44.510838 27.55415", "timestamp": null, "begin": null, "end": null, "altitudeMode": null, "tessellate": -1, "extrude": 0, "visibility": -1, "drawOrder": null, "icon": null }, "geometry": { "type": "Point", "coordinates": [ 27.55415, 44.510838, 0.0 ] } },
{ "type": "Feature", "properties": { "Name": "DIRAT WYP", "description": "GPS 48.388332 44.751667", "timestamp": null, "begin": null, "end": null, "altitudeMode": null, "tessellate": -1, "extrude": 0, "visibility": -1, "drawOrder": null, "icon": null }, "geometry": { "type": "Point", "coordinates": [ 44.751667, 48.388332, 0.0 ] } },
{ "type": "Feature", "properties": { "Name": "DIRSO WYP", "description": "GPS 54.310833 15.038055", "timestamp": null, "begin": null, "end": null, "altitudeMode": null, "tessellate": -1, "extrude": 0, "visibility": -1, "drawOrder": null, "icon": null }, "geometry": { "type": "Point", "coordinates": [ 15.038055, 54.310833, 0.0 ] } },
{ "type": "Feature", "properties": { "Name": "DISEN WYP", "description": "GPS 64.120003 35.049999", "timestamp": null, "begin": null, "end": null, "altitudeMode": null, "tessellate": -1, "extrude": 0, "visibility": -1, "drawOrder": null, "icon": null }, "geometry": { "type": "Point", "coordinates": [ 35.049999, 64.120003, 0.0 ] } },
{ "type": "Feature", "properties": { "Name": "DITKI WYP", "description": "GPS 48.342777 69.404724", "timestamp": null, "begin": null, "end": null, "altitudeMode": null, "tessellate": -1, "extrude": 0, "visibility": -1, "drawOrder": null, "icon": null }, "geometry": { "type": "Point", "coordinates": [ 69.404724, 48.342777, 0.0 ] } },